<?xml version="1.0" encoding="ISO-8859-1"?>
<kml xmlns="http://earth.google.com/kml/2.0"><Folder><Placemark><name>T_FI BBS ES TF-655 PK-3.1- San Miguel de Abona A (Sta. Cruz de Tenerife) - Ache</name><Point><coordinates>-16.64188,28.05221,0</coordinates></Point></Placemark><Placemark><name>T_FI BBS ES TF-655 PK-2 - San Miguel de Abona D (Sta. Cruz de Tenerife) - Ache</name><Point><coordinates>-16.63113,28.0494,0</coordinates></Point></Placemark><Placemark><name>T_FI BBS ES TF-5 PK-22.3 A - El Sauzal A (Sta. Cruz de Tenerife) - Ache</name><Point><coordinates>-16.43921,28.46485,0</coordinates></Point></Placemark><Placemark><name>T_FI BBS ES TF-5 PK-20.6 - El Sauzal D (Sta. Cruz de Tenerife) - Ache</name><Point><coordinates>-16.42677,28.47241,0</coordinates></Point></Placemark><Placemark><name>T_FI BBS ES GC-23 PK-4 - Las Palmas A (Las Palmas) - wyxchari</name><Point><coordinates>-15.44762,28.09221,0</coordinates></Point></Placemark><Placemark><name>T_FI BBS ES LZ-701 PK-10.7 - Yaiza A (Las Palmas) - wyxchari</name><Point><coordinates>-13.83295,28.88177,0</coordinates></Point></Placemark><Placemark><name>T_FI BBS ES LZ-701 PK-4.1 - Yaiza D (Las Palmas) - wyxchari</name><Point><coordinates>-13.81697,28.93673,0</coordinates></Point></Placemark><Placemark><name>T_FI BBS ES LZ-701 PK-3.6 - La Hoya A (Las Palmas) - wyxchari</name><Point><coordinates>-13.81305,28.93896,0</coordinates></Point></Placemark><Placemark><name>T_FI BBS ES LZ-701 PK-0.3 - Yaiza D (Las Palmas) - wyxchari</name><Point><coordinates>-13.78329,28.95065,0</coordinates></Point></Placemark><Placemark><name>T_FI BBS ES LZ-67 PK-20.1 - Yaiza A (Las Palmas) - Ache</name><Point><coordinates>-13.75734,28.95926,0</coordinates></Point></Placemark><Placemark><name>T_FI BBS ES LZ-67 PK-16.2 - Yaiza D (Las Palmas) - Ache</name><Point><coordinates>-13.74133,28.9911,0</coordinates></Point></Placemark><Placemark><name>T_FI BBS ES LZ-67 PK-13.5 - Tinajo A (Las Palmas) - Ache</name><Point><coordinates>-13.73335,29.01163,0</coordinates></Point></Placemark><Placemark><name>T_FI BBS ES LZ-67 PK-7.9 - Tinajo D (Las Palmas) - Ache</name><Point><coordinates>-13.69264,29.04368,0</coordinates></Point></Placemark><Placemark><name>T_FI BBS PT IC19 PK-9.1 -Queluz A (Portugal) - Ache</name><Point><coordinates>-9.29261,38.75821,0</coordinates></Point></Placemark><Placemark><name>T_FI BBS PT IC1 PK-688.6 - Santana da Serra A (Portugal) - Ache</name><Point><coordinates>-8.29783,37.50122,0</coordinates></Point></Placemark><Placemark><name>T_FI BBS PT IC1 PK-686.6 - Gomes Aires D (Portugal) - Ache</name><Point><coordinates>-8.28348,37.51424,0</coordinates></Point></Placemark><Placemark><name>T_FI BBS PT IC1 PK-682.7 - Lajes A (Portugal) - Ache</name><Point><coordinates>-8.2672,37.54312,0</coordinates></Point></Placemark><Placemark><name>T_FI BBS PT IC1 PK-679.8 - Gomes Aires D (Portugal) - Ache</name><Point><coordinates>-8.26166,37.56659,0</coordinates></Point></Placemark><Placemark><name>T_FI BBS PT N261 PK-97.1 - Aljustrel D (Portugal) - Ache</name><Point><coordinates>-8.2034,37.88878,0</coordinates></Point></Placemark><Placemark><name>T_FI BBS PT N261 PK-98.5 - Aljustrel D (Portugal) - Ache</name><Point><coordinates>-8.1891,37.88264,0</coordinates></Point></Placemark><Placemark><name>T_FI BBS ES N-433 PK-122.9- Aroche A @ (Huelva) - Ache</name><Point><coordinates>-6.90536,37.94673,0</coordinates></Point></Placemark><Placemark><name>T_FI BBS ES N-433 PK-118.3 - Cortegana D @ (Huelva) - Ache</name><Point><coordinates>-6.85756,37.93481,0</coordinates></Point></Placemark><Placemark><name>T_FI BBS PT N378 PK-17 - São Lourenço A (Portugal) - Ache</name><Point><coordinates>-9.10435,38.49686,0</coordinates></Point></Placemark><Placemark><name>T_FI BBS PT N378 PK-11.1 - Q.ta do Conde D (Portugal) - Ache</name><Point><coordinates>-9.09967,38.54828,0</coordinates></Point></Placemark><Placemark><name>T_FI BBS PT IC2 PK-8.2 - Santa Iria de Azoia D (Portugal) - Ache</name><Point><coordinates>-9.07383,38.84087,0</coordinates></Point></Placemark><Placemark><name>T_FI BBS PT A12 SUL PK-3.5 - Lisboa D (Portugal) - Ache</name><Point><coordinates>-9.06334,38.77751,0</coordinates></Point></Placemark><Placemark><name>T_FI BBS PT A12 SUL PK-11.9 - Samouco A (Portugal) - Tufão</name><Point><coordinates>-8.99108,38.72768,0</coordinates></Point></Placemark><Placemark><name>T_FI BBS PT N10 PK-115.5 - Vila Franca de Xira A (Portugal) - Ache</name><Point><coordinates>-8.94225,38.94127,0</coordinates></Point></Placemark><Placemark><name>T_FI BBS PT N10 PK-110.6 - Vila Franca de Xira D (Portugal) - Ache</name><Point><coordinates>-8.89107,38.92452,0</coordinates></Point></Placemark><Placemark><name>T_FI BBS PT N4 PK-25 - Alcochete D (Portugal) - Ache</name><Point><coordinates>-8.82629,38.70714,0</coordinates></Point></Placemark><Placemark><name>T_FI BBS PT N109 PK-103 - Bom Sucesso A (Portugal) - Ache</name><Point><coordinates>-8.77927,40.26678,0</coordinates></Point></Placemark><Placemark><name>T_FI BBS PT A1 PK-59.9 - Vila Chã de Ourique D (Portugal) - Tufão</name><Point><coordinates>-8.77343,39.21828,0</coordinates></Point></Placemark><Placemark><name>T_FI BBS PT N4 PK-30 -Santo Isidro de Pegões A (Portugal) - Ache</name><Point><coordinates>-8.77174,38.69418,0</coordinates></Point></Placemark><Placemark><name>T_FI BBS PT N109 PK-100.8 - Tocha D (Portugal) - Ache</name><Point><coordinates>-8.76874,40.28526,0</coordinates></Point></Placemark><Placemark><name>T_FI BBS PT IC1 PK-538.9 - Marateca D (Portugal) - Ache</name><Point><coordinates>-8.67659,38.57902,0</coordinates></Point></Placemark><Placemark><name>T_FI BBS PT N10 PK-79.2 - Canha A (Portugal) - Ache</name><Point><coordinates>-8.6495,38.73234,0</coordinates></Point></Placemark><Placemark><name>T_FI BBS PT IC1 PK-545 - Marateca A (Portugal) - Ache</name><Point><coordinates>-8.6383,38.53689,0</coordinates></Point></Placemark><Placemark><name>T_FI BBS PT N10 PK-76.1 - Canha D (Portugal) - Ache</name><Point><coordinates>-8.62003,38.71738,0</coordinates></Point></Placemark><Placemark><name>T_FI BBS PT A1 PK-211.9 - Ventosa do Bairro D (Portugal) - Tufão</name><Point><coordinates>-8.49053,40.39741,0</coordinates></Point></Placemark><Placemark><name>T_FI BBS PT A25 PK-37.6 - Valongo do Vouga D (Portugal) - Tufão</name><Point><coordinates>-8.38641,40.65987,0</coordinates></Point></Placemark><Placemark><name>T_FI BBS ES PO-340 PK-6.2 - Tuy A (Pontevedra) - pereiraguisande</name><Point><coordinates>-8.70025,42.07395,0</coordinates></Point></Placemark><Placemark><name>T_FI BBS ES PO-340 PK-4.2 - Tuy D (Pontevedra) - pereiraguisande</name><Point><coordinates>-8.68765,42.06181,0</coordinates></Point></Placemark><Placemark><name>T_FI BBS ES AP-9 PK-149.5 - Redondela D (Pontevedra) - Ache</name><Point><coordinates>-8.66471,42.27326,0</coordinates></Point></Placemark><Placemark><name>T_FI BBS ES AP-9 PK-158.9 - Vigo A (Pontevedra) - michael_schumi</name><Point><coordinates>-8.6551,42.21622,0</coordinates></Point></Placemark><Placemark><name>T_FI BBS ES AC-552 PK-27.3 - Carballo A (La Coruña) - Ache</name><Point><coordinates>-8.65158,43.23279,0</coordinates></Point></Placemark><Placemark><name>T_FI BBS PT A29 PK-45.9 - Arcozelo D (Portugal) - Ache</name><Point><coordinates>-8.64262,41.06886,0</coordinates></Point></Placemark><Placemark><name>T_FI BBS PT A29 PK-47.2 - Arcozelo A (Portugal) - Ache</name><Point><coordinates>-8.63577,41.07874,0</coordinates></Point></Placemark><Placemark><name>T_FI BBS PT A29 PK-37.2 - Espinho A (Portugal) - Ache</name><Point><coordinates>-8.6173,40.99629,0</coordinates></Point></Placemark><Placemark><name>T_FI BBS PT A3 PK-15.9 - Covelas D (Portugal) - Tufão</name><Point><coordinates>-8.53855,41.29941,0</coordinates></Point></Placemark><Placemark><name>T_FI BBS PT IC2 PK-266.8 - Santiago da Riba-Ul A (Portugal) - Ache</name><Point><coordinates>-8.48181,40.85558,0</coordinates></Point></Placemark><Placemark><name>T_FI BBS PT IC2 PK-264.7 - Oliveira de Azeméis D (Portugal) - Ache</name><Point><coordinates>-8.46936,40.84174,0</coordinates></Point></Placemark><Placemark><name>T_FI BBS PT A3 PK-40.8 - Vimieiro A (Portugal) - Ache</name><Point><coordinates>-8.46487,41.49358,0</coordinates></Point></Placemark><Placemark><name>T_FI BBS PT A42 PK-7.1 - Modelos D (Portugal) - Forocoches</name><Point><coordinates>-8.39341,41.25821,0</coordinates></Point></Placemark><Placemark><name>T_FI BBS PT N211 PK-1.4 - Castelões D (Portugal) - Ache</name><Point><coordinates>-8.19555,41.2278,0</coordinates></Point></Placemark><Placemark><name>T_FI BBS PT N211 PK-5.8 - Constance A (Portugal) - Tufão</name><Point><coordinates>-8.16252,41.20369,0</coordinates></Point></Placemark><Placemark><name>T_FI BBS ES AC-552 PK-26.3 - Carballo D (La Coruña) - Ache</name><Point><coordinates>-8.64193,43.23856,0</coordinates></Point></Placemark><Placemark><name>T_FI BBS ES N-550 PK-129.5- Vilaboa A (Pontevedra) - michael_schumi</name><Point><coordinates>-8.63537,42.37123,0</coordinates></Point></Placemark><Placemark><name>T_FI BBS ES N-550 PK-126.7 - Vilaboa D (Pontevedra) - michael_schumi</name><Point><coordinates>-8.63513,42.39533,0</coordinates></Point></Placemark><Placemark><name>T_FI BBS ES AG-55 PK-11.7 - Arteixo D (La Coruña) - Ache</name><Point><coordinates>-8.49856,43.28957,0</coordinates></Point></Placemark><Placemark><name>T_FI BBS ES N-550 PK-56.1 - Formaris A @ (La Coruña) - Ache</name><Point><coordinates>-8.49527,42.91748,0</coordinates></Point></Placemark><Placemark><name>T_FI BBS ES AP-9F PK-31.1 - Neda A (La Coruña) - caceres222</name><Point><coordinates>-8.15689,43.493,0</coordinates></Point></Placemark><Placemark><name>T_FI BBS ES AG-64 PK-12.8 - San Saturnino D (La Coruña) - Ache</name><Point><coordinates>-8.08528,43.52445,0</coordinates></Point></Placemark><Placemark><name>T_FI BBS PT N18 PK-276.3 - São Manços D (Portugal) - Ache</name><Point><coordinates>-7.79802,38.51994,0</coordinates></Point></Placemark><Placemark><name>T_FI BBS PT N18 PK-278.4 - São Manços A (Portugal) - Ache</name><Point><coordinates>-7.77993,38.50785,0</coordinates></Point></Placemark><Placemark><name>T_FI BBS ES EX-110 PK-35.2 - Alburquerque D (Badajoz) - Ache</name><Point><coordinates>-6.99777,39.19684,0</coordinates></Point></Placemark><Placemark><name>T_FI BBS ES EX-110 PK-36.8 - Alburquerque A (Badajoz) - Ache</name><Point><coordinates>-6.99308,39.1848,0</coordinates></Point></Placemark><Placemark><name>T_FI BBS ES N-525 PK-246 - Coles A (Orense) - ggdavid2001</name><Point><coordinates>-7.84981,42.39579,0</coordinates></Point></Placemark><Placemark><name>T_FI BBS ES OU-536 PK-28 - Maceda A (Orense) - Radardroid</name><Point><coordinates>-7.59052,42.29426,0</coordinates></Point></Placemark><Placemark><name>T_FI BBS ES A-8 PK-550.2 - Abadin A (Lugo) - Ache</name><Point><coordinates>-7.40724,43.37774,0</coordinates></Point></Placemark><Placemark><name>T_FI BBS ES A-8 PK-545.2 - Mondoñedo D (Lugo) - Ache</name><Point><coordinates>-7.349,43.38322,0</coordinates></Point></Placemark><Placemark><name>T_FI BBS ES A-8 PK-506.2 - Ribadeo A @ (Lugo) - PacoPapa</name><Point><coordinates>-7.04165,43.54298,0</coordinates></Point></Placemark><Placemark><name>T_FI BBS ES A-8 PK-505.1 - Castropol D @ (Asturias) - PacoPapa</name><Point><coordinates>-7.02719,43.54283,0</coordinates></Point></Placemark><Placemark><name>Radares BBS www.laradiobbs.net Actualizacion: miércoles, 7 de mayo de 2025 a las 07:08 - Semana: 19</name><Point><coordinates>0,0,0</coordinates></Point></Placemark><Placemark><name>T_FI BBS ES CA-35 PK-7 - Cádiz A @ (Cádiz) - Ache</name><Point><coordinates>-6.27443,36.52143,0</coordinates></Point></Placemark><Placemark><name>T_FI BBS ES CA-35 PK-2.7 - Cádiz D @ (Cádiz) - Ache</name><Point><coordinates>-6.2298,36.52064,0</coordinates></Point></Placemark><Placemark><name>T_FI BBS ES CA-33 PK-9.1 - San Fernando D (Cádiz) - Ache</name><Point><coordinates>-6.20541,36.46997,0</coordinates></Point></Placemark><Placemark><name>T_FI BBS ES CA-33 PK-12.2 - Puerto Real A (Cádiz) - Ache</name><Point><coordinates>-6.17617,36.46774,0</coordinates></Point></Placemark><Placemark><name>T_FI BBS ES A-48 PK-3.9 - Chiclana de la Fra. D (Cádiz) - PacoPapa</name><Point><coordinates>-6.13558,36.44364,0</coordinates></Point></Placemark><Placemark><name>T_FI BBS ES A-49 PK-2.7 - Castilleja de la Cuesta D (Sevilla) - Ache</name><Point><coordinates>-6.05232,37.38307,0</coordinates></Point></Placemark><Placemark><name>T_FI BBS ES N-IV PK-573.3 - Los Palacios y Villafranca D (Sevilla) - Ache</name><Point><coordinates>-5.89901,37.12791,0</coordinates></Point></Placemark><Placemark><name>T_FI BBS ES A-4 PK-531 - La Rinconada D (Sevilla) - wyxchari</name><Point><coordinates>-5.88822,37.43209,0</coordinates></Point></Placemark><Placemark><name>T_FI BBS ES N-IV PK-577.8 - Utrera A (Sevilla) - Ache</name><Point><coordinates>-5.86738,37.09825,0</coordinates></Point></Placemark><Placemark><name>T_FI BBS ES N-340 PK-79.5 - Tarifa D (Cádiz) - wyxchari</name><Point><coordinates>-5.64398,36.05141,0</coordinates></Point></Placemark><Placemark><name>T_FI BBS ES N-340 PK-80.6 - Tarifa A (Cádiz) - wyxchari</name><Point><coordinates>-5.63365,36.04474,0</coordinates></Point></Placemark><Placemark><name>T_FI BBS ES A-7 PK-1107.7 - San Roque A (Cádiz) - Ache</name><Point><coordinates>-5.39296,36.20731,0</coordinates></Point></Placemark><Placemark><name>T_FI BBS ES A-7 PK-1106.3 - San Roque D (Cádiz) - Ache</name><Point><coordinates>-5.38107,36.20867,0</coordinates></Point></Placemark><Placemark><name>T_FI BBS ES A-377 PK-8.9 - Casares A (Málaga) - wyxchari</name><Point><coordinates>-5.28124,36.40951,0</coordinates></Point></Placemark><Placemark><name>T_FI BBS ES A-377 PK-5.6 - Manilva D (Málaga) - Ache</name><Point><coordinates>-5.27465,36.38258,0</coordinates></Point></Placemark><Placemark><name>T_FI BBS ES A-397 PK-28 - Benahavís D (Málaga) - Forocoches</name><Point><coordinates>-5.06884,36.59222,0</coordinates></Point></Placemark><Placemark><name>T_FI BBS ES A-397 PK-30.1 - Benahavís A (Málaga) - Forocoches</name><Point><coordinates>-5.06775,36.58148,0</coordinates></Point></Placemark><Placemark><name>T_FI BBS ES A-7 PK-1024.9 - Mijas A @ (Málaga) - wyxchari</name><Point><coordinates>-4.68813,36.49849,0</coordinates></Point></Placemark><Placemark><name>T_FI BBS ES A-7 PK-1019.7 - Mijas D @ (Málaga) - wyxchari</name><Point><coordinates>-4.63723,36.50848,0</coordinates></Point></Placemark><Placemark><name>T_FI BBS ES MA-20 PK-10.2 - Málaga A (Málaga) - wyxchari</name><Point><coordinates>-4.45343,36.72715,0</coordinates></Point></Placemark><Placemark><name>T_FI BBS ES A-45 PK-128.8 - Casabermeja A (Málaga) - secano1955</name><Point><coordinates>-4.43765,36.86213,0</coordinates></Point></Placemark><Placemark><name>T_FI BBS ES A-45 PK-140.3 - Málaga A (Málaga) - YOJU</name><Point><coordinates>-4.42583,36.77546,0</coordinates></Point></Placemark><Placemark><name>T_FI BBS ES EX-327 PK-21.9 - Montijo D (Badajoz) - Forocoches</name><Point><coordinates>-6.62454,38.93133,0</coordinates></Point></Placemark><Placemark><name>T_FI BBS ES EX-327 PK-23.6 - Montijo A (Badajoz) - Forocoches</name><Point><coordinates>-6.61232,38.91974,0</coordinates></Point></Placemark><Placemark><name>T_FI BBS ES N-432 PK-81 - Puebla de Sancho Pérez D @ (Badajoz) - Kaza</name><Point><coordinates>-6.33162,38.39509,0</coordinates></Point></Placemark><Placemark><name>T_FI BBS ES N-432 PK-95.5 - Usagre A @ (Badajoz) - Kaza</name><Point><coordinates>-6.17744,38.34488,0</coordinates></Point></Placemark><Placemark><name>T_FI BBS ES N-122 PK-480 - Muelas del Pan A @ (Zamora) - luiskenny17</name><Point><coordinates>-5.97673,41.53466,0</coordinates></Point></Placemark><Placemark><name>T_FI BBS ES N-122 PK-474.7 - Zamora D @ (Zamora) - luiskenny17</name><Point><coordinates>-5.91624,41.54169,0</coordinates></Point></Placemark><Placemark><name>T_FI BBS ES CL-517 PK-16.4 -  Golpejas A @ (Salamanca) - tarranchin</name><Point><coordinates>-5.89901,40.99793,0</coordinates></Point></Placemark><Placemark><name>T_FI BBS ES AP-66 PK-101.5 - Los Barrios de Luna A @ (León) - Todopoi</name><Point><coordinates>-5.87535,42.84696,0</coordinates></Point></Placemark><Placemark><name>T_FI BBS ES AS-112 PK-0.9 - Mieres D (Asturias) - wyxchari</name><Point><coordinates>-5.7846,43.19719,0</coordinates></Point></Placemark><Placemark><name>T_FI BBS ES AS-112 PK-2.2 - Mieres A (Asturias) - wyxchari</name><Point><coordinates>-5.77166,43.18991,0</coordinates></Point></Placemark><Placemark><name>T_FI BBS ES CL-517 PK-4.4 - Doñinos de Salamanca D @ (Salamanca) - tarranchin</name><Point><coordinates>-5.76589,40.96626,0</coordinates></Point></Placemark><Placemark><name>T_FI BBS ES N120 PK-319.6 - Valverde de la Virgen A @ (León) - Ache</name><Point><coordinates>-5.73286,42.54192,0</coordinates></Point></Placemark><Placemark><name>T_FI BBS ES N-120 PK-317.6 - Valverde de la Virgen D @ (León) - Ache</name><Point><coordinates>-5.71409,42.55336,0</coordinates></Point></Placemark><Placemark><name>T_FI BBS ES Av. Lasalle 5- Salamanca (Salamanca) - Ache</name><Point><coordinates>-5.69053,40.955,0</coordinates></Point></Placemark><Placemark><name>T_FI BBS ES AS-117 PK-4.7 - Langreo D (Asturias) - wyxchari</name><Point><coordinates>-5.69019,43.30003,0</coordinates></Point></Placemark><Placemark><name>T_FI BBS ES C/ de José de Lamano Beneite 124 - Salamanca (Salamanca) - Ache</name><Point><coordinates>-5.68921,40.96224,0</coordinates></Point></Placemark><Placemark><name>T_FI BBS ES Av. Lasalle 131 Frent. - Salamanca (Salamanca) - Ache</name><Point><coordinates>-5.68673,40.9548,0</coordinates></Point></Placemark><Placemark><name>T_FI BBS ES C/ de José de Lamano Beneite 29 - Salamanca (Salamanca) - Ache</name><Point><coordinates>-5.68348,40.96498,0</coordinates></Point></Placemark><Placemark><name>T_FI BBS ES AS-117 PK-6.6 - Langreo A (Asturias) - wyxchari</name><Point><coordinates>-5.66798,43.29049,0</coordinates></Point></Placemark><Placemark><name>T_FI BBS ES SA-20 PK-91.9 - Sta. Marta de Tormes D (Salamanca) - Ache</name><Point><coordinates>-5.63925,40.94438,0</coordinates></Point></Placemark><Placemark><name>T_FI BBS ES N-630 PK-132 - Garrafe de Torío D @ (León) - Ache</name><Point><coordinates>-5.61081,42.70914,0</coordinates></Point></Placemark><Placemark><name>T_FI BBS ES N-630 PK-137.5 - Sariegos A @ (León) - Ache</name><Point><coordinates>-5.59396,42.66206,0</coordinates></Point></Placemark><Placemark><name>T_FI BBS ES N-403 PK-113.2 - San Juan de la Nava D (Ávila) - Ache</name><Point><coordinates>-4.67627,40.49599,0</coordinates></Point></Placemark><Placemark><name>T_FI BBS ES N-403 PK-118.1 - El Barraco A (Ávila) - Ache</name><Point><coordinates>-4.6541,40.52681,0</coordinates></Point></Placemark><Placemark><name>T_FI BBS ES A-5 PK-85.4 - Santa Olalla A (Toledo) - Ache</name><Point><coordinates>-4.48921,40.02172,0</coordinates></Point></Placemark><Placemark><name>T_FI BBS ES N-403 PK-86.3 - La Atalaya A (Ávila) - wyxchari</name><Point><coordinates>-4.46737,40.38967,0</coordinates></Point></Placemark><Placemark><name>T_FI BBS ES N-403 PK-83.2 - La Atalaya D (Ávila) - wyxchari</name><Point><coordinates>-4.44497,40.37446,0</coordinates></Point></Placemark><Placemark><name>T_FI BBS ES N-403 PK-49 - Escalona D (Toledo) - Ache</name><Point><coordinates>-4.4053,40.12956,0</coordinates></Point></Placemark><Placemark><name>T_FI BBS ES N-403 PK-51.5 - Escalona A (Toledo) - Ache</name><Point><coordinates>-4.40238,40.15199,0</coordinates></Point></Placemark><Placemark><name>T_FI BBS ES AV-651 PK-4.9 - El Hoyo de Pinares D (Ávila) - Ache</name><Point><coordinates>-4.38754,40.50683,0</coordinates></Point></Placemark><Placemark><name>T_FI BBS ES AV-562 PK-9.2 - Cebreros D (Ávila) - wyxchari</name><Point><coordinates>-4.36666,40.46023,0</coordinates></Point></Placemark><Placemark><name>T_FI BBS ES AV-651 PK-7.9 - El Hoyo de Pinares A (Ávila) - Ache</name><Point><coordinates>-4.36643,40.51558,0</coordinates></Point></Placemark><Placemark><name>T_FI BBS ES AV-562 PK-11.5 - Cebreros A (Ávila) - wyxchari</name><Point><coordinates>-4.34863,40.46018,0</coordinates></Point></Placemark><Placemark><name>T_FI BBS ES A-8 PK-355.9 - Villaviciosa A (Asturias) - anchonyo</name><Point><coordinates>-5.44363,43.48743,0</coordinates></Point></Placemark><Placemark><name>T_FI BBS ES N-601 PK-228.2 - Medina de Rioseco A @ (Valladolid) - Ache</name><Point><coordinates>-5.01323,41.85362,0</coordinates></Point></Placemark><Placemark><name>T_FI BBS ES N-601 PK-226.4 - Medina de Rioseco D @ (Valladolid) - Ache</name><Point><coordinates>-5.01105,41.83806,0</coordinates></Point></Placemark><Placemark><name>T_FI BBS ES CL-613 PK-32.7 - Cisneros A (Palencia) - Ache</name><Point><coordinates>-4.84773,42.21505,0</coordinates></Point></Placemark><Placemark><name>T_FI BBS ES CL-610 PK-8.3 - Puente Duero-Esparragal A (Valladolid) - AnebaID</name><Point><coordinates>-4.78023,41.56903,0</coordinates></Point></Placemark><Placemark><name>T_FI BBS ES CL-610 PK-5.7 - Pinar de Antequera D (Valladolid) - wyxchari</name><Point><coordinates>-4.75924,41.58583,0</coordinates></Point></Placemark><Placemark><name>T_FI BBS ES CL-615 PK-50 - Renedo de la Vega A @ (Palencia) - tarranchin</name><Point><coordinates>-4.69386,42.44374,0</coordinates></Point></Placemark><Placemark><name>T_FI BBS ES CL-613 PK-16 - Paredes de Nava D (Palencia) - Ache</name><Point><coordinates>-4.67612,42.14468,0</coordinates></Point></Placemark><Placemark><name>T_FI BBS ES CL-613 PK-15.4 - Paredes de Nava A (Palencia) - Erico</name><Point><coordinates>-4.673,42.14091,0</coordinates></Point></Placemark><Placemark><name>T_FI BBS ES CL-613 PK-11.9 - Becerril de Campos D (Palencia) - Erico</name><Point><coordinates>-4.64571,42.1174,0</coordinates></Point></Placemark><Placemark><name>T_FI BBS ES CL-615 PK-38.3 - Carrión de los Condes D (Palencia) - Erico</name><Point><coordinates>-4.62483,42.35237,0</coordinates></Point></Placemark><Placemark><name>T_FI BBS ES CL-615 PK-34.6 - Carrión de los Condes A (Palencia) - Erico</name><Point><coordinates>-4.60415,42.32418,0</coordinates></Point></Placemark><Placemark><name>T_FI BBS ES CL-615 PK-1.7 - Grijota D (Palencia) - Erico</name><Point><coordinates>-4.56015,42.0401,0</coordinates></Point></Placemark><Placemark><name>T_FI BBS ES CL-602 PK-98.6 - Mata de Cuellar D @ (Segovia) - Forocoches</name><Point><coordinates>-4.47481,41.39035,0</coordinates></Point></Placemark><Placemark><name>T_FI BBS ES CL-602 PK-99.7 - Mata de Cuellar A @ (Segovia) - Forocoches</name><Point><coordinates>-4.46678,41.39608,0</coordinates></Point></Placemark><Placemark><name>T_FI BBS ES CL-602 PK-102.8 - Vallelado D @ (Segovia) - Ache</name><Point><coordinates>-4.43138,41.40146,0</coordinates></Point></Placemark><Placemark><name>T_FI BBS ES CL-602 PK-105.9 - San Cristóbal de Cuéllar A @ (Segovia) - Ache</name><Point><coordinates>-4.39586,41.4055,0</coordinates></Point></Placemark><Placemark><name>T_FI BBS ES A-7 PK-936.3 - Torrox D (Málaga) - wyxchari</name><Point><coordinates>-3.92246,36.75587,0</coordinates></Point></Placemark><Placemark><name>T_FI BBS ES GR-30 PK-10 - Granada D (Granada) - wyxchari</name><Point><coordinates>-3.63261,37.19285,0</coordinates></Point></Placemark><Placemark><name>T_FI BBS ES M-521 PK-27.9 - Robledo de Chavela A (Madrid) - wyxchari</name><Point><coordinates>-4.21625,40.51028,0</coordinates></Point></Placemark><Placemark><name>T_FI BBS ES M-521 PK-26.9 - Robledo de Chavela D (Madrid) - wyxchari</name><Point><coordinates>-4.20826,40.51081,0</coordinates></Point></Placemark><Placemark><name>T_FI BBS ES AP-6 PK-56.6 - El Espinar A (Segovia) - Ache</name><Point><coordinates>-4.16108,40.71684,0</coordinates></Point></Placemark><Placemark><name>T_FI BBS ES M-600 PK-11.5 - El Escorial D (Madrid) - wyxchari</name><Point><coordinates>-4.12346,40.569,0</coordinates></Point></Placemark><Placemark><name>T_FI BBS ES AP-6 PK-49.3 - Guadarrama D (Madrid) - Ache</name><Point><coordinates>-4.10764,40.6698,0</coordinates></Point></Placemark><Placemark><name>T_FI BBS ES M-505 PK-12.3 - Galapagar A (Madrid) - Ache</name><Point><coordinates>-3.96108,40.5546,0</coordinates></Point></Placemark><Placemark><name>T_FI BBS ES M-505 PK-9.6 - Galapagar D (Madrid) - Ache</name><Point><coordinates>-3.95256,40.53464,0</coordinates></Point></Placemark><Placemark><name>T_FI BBS ES Av de Sinesio Delgado - Madrid (Madrid) - Ache</name><Point><coordinates>-3.7283,40.46036,0</coordinates></Point></Placemark><Placemark><name>T_FI BBS ES Av. de Sinesio Delgado - Madrid (Madrid) - Ache</name><Point><coordinates>-3.7127,40.46919,0</coordinates></Point></Placemark><Placemark><name>T_FI BBS ES Av. de Córdoba 41 - Madrid (Madrid) - Ache</name><Point><coordinates>-3.69665,40.37864,0</coordinates></Point></Placemark><Placemark><name>T_FI BBS ES A-4 PK-47 - Aranjuez D (Madrid) - 12meses</name><Point><coordinates>-3.65191,40.02481,0</coordinates></Point></Placemark><Placemark><name>T_FI BBS ES N-320 PK-330 - Torrelaguna A (Madrid) - Forocoches</name><Point><coordinates>-3.53498,40.79517,0</coordinates></Point></Placemark><Placemark><name>T_FI BBS ES A-4 PK-245.2 - Viso del Marqués D (Ciudad Real) - caceres222</name><Point><coordinates>-3.49812,38.40559,0</coordinates></Point></Placemark><Placemark><name>T_FI BBS ES N-320 PK-318 - Talamanca de Jarama D (Madrid) - Forocoches</name><Point><coordinates>-3.45597,40.7208,0</coordinates></Point></Placemark><Placemark><name>T_FI BBS ES N-301 PK-70.7 - Villatobas D (Toledo) - marce_del_lugar</name><Point><coordinates>-3.41549,39.93044,0</coordinates></Point></Placemark><Placemark><name>T_FI BBS ES N-301 PK-77.1 - Villatobas A (Toledo) - marce_del_lugar</name><Point><coordinates>-3.34698,39.9084,0</coordinates></Point></Placemark><Placemark><name>T_FI BBS ES N-320 PK-300.5 - Valdeaveruelo A (Guadalajara) - Ache</name><Point><coordinates>-3.31325,40.63491,0</coordinates></Point></Placemark><Placemark><name>T_FI BBS ES M-219 PK-11 - Pozuelo del Rey D (Madrid) - Radardroid</name><Point><coordinates>-3.29419,40.36934,0</coordinates></Point></Placemark><Placemark><name>T_FI BBS ES N-320 PK-298.1 - Quer D (Guadalajara) - Ache</name><Point><coordinates>-3.28694,40.633,0</coordinates></Point></Placemark><Placemark><name>T_FI BBS ES M-219 PK-13 - Nuevo Baztán A (Madrid) - wyxchari</name><Point><coordinates>-3.27143,40.36578,0</coordinates></Point></Placemark><Placemark><name>T_FI BBS ES N-629 PK-83.4 - Limpias A (Cantabria) - Ache</name><Point><coordinates>-3.42238,43.36769,0</coordinates></Point></Placemark><Placemark><name>T_FI BBS ES N-629 PK-81.2 - Ampuero D (Cantabria) - Ache</name><Point><coordinates>-3.41462,43.35121,0</coordinates></Point></Placemark><Placemark><name>T_FI BBS ES N-120 PK-76.9 -Villafranca Montes de Oca A (Burgos) - Ache</name><Point><coordinates>-3.30583,42.39154,0</coordinates></Point></Placemark><Placemark><name>T_FI BBS ES N-120 PK-74.6 - Espinosa del Camino D (Burgos) - Ache</name><Point><coordinates>-3.28469,42.40234,0</coordinates></Point></Placemark><Placemark><name>T_FI BBS ES N-320 PK-264.1 - Horche A (Guadalajara) - luis 19731</name><Point><coordinates>-3.08531,40.58228,0</coordinates></Point></Placemark><Placemark><name>T_FI BBS ES N-320 PK-259.2 - Horche D (Guadalajara) - luis 19731</name><Point><coordinates>-3.05316,40.57297,0</coordinates></Point></Placemark><Placemark><name>T_FI BBS ES N-430 PK-486.6 - Barrax D (Albacete) - Ache</name><Point><coordinates>-2.19077,39.04249,0</coordinates></Point></Placemark><Placemark><name>T_FI BBS ES N-430 PK-503 - Albacete A (Albacete) - Ache</name><Point><coordinates>-2.00389,39.01825,0</coordinates></Point></Placemark><Placemark><name>T_FI BBS ES BI-633 PK-37 - Mallavia D (Vizcaya) - wyxchari</name><Point><coordinates>-2.5616,43.19621,0</coordinates></Point></Placemark><Placemark><name>T_FI BBS ES BI-633 PK-39.8 - Mallavia A (Vizcaya) - wyxchari</name><Point><coordinates>-2.54467,43.2112,0</coordinates></Point></Placemark><Placemark><name>T_FI BBS ES N-234 PK-340.4 - Martialay A (Soria) - tarranchin</name><Point><coordinates>-2.35694,41.74607,0</coordinates></Point></Placemark><Placemark><name>T_FI BBS ES N-234 PK-337.6 - Candilichera D (Soria) - tarranchin</name><Point><coordinates>-2.32654,41.73466,0</coordinates></Point></Placemark><Placemark><name>T_FI BBS ES A-370 PK-8.4 - Garrucha D (Almería) - Ache</name><Point><coordinates>-1.84218,37.16719,0</coordinates></Point></Placemark><Placemark><name>T_FI BBS ES A-370 PK-9.4 - Garrucha A (Almería) - Ache</name><Point><coordinates>-1.83259,37.17203,0</coordinates></Point></Placemark><Placemark><name>T_FI BBS ES A-7 PK-634.5 - Lorca D (Murcia) - candil123</name><Point><coordinates>-1.71056,37.68445,0</coordinates></Point></Placemark><Placemark><name>T_FI BBS ES A-7 PK-636 - Lorca A (Murcia) - Ache</name><Point><coordinates>-1.70976,37.67068,0</coordinates></Point></Placemark><Placemark><name>T_FI BBS ES RM-603 PK-2.7 - Sangonera la Verde A (Murcia) - Ache</name><Point><coordinates>-1.19,37.9358,0</coordinates></Point></Placemark><Placemark><name>T_FI BBS ES RM-603 PK-1.4 - El Palmar D (Murcia) - Ache</name><Point><coordinates>-1.17571,37.93951,0</coordinates></Point></Placemark><Placemark><name>T_FI BBS ES A-3 PK-318.9 - Buñol A (Valencia) - azuchiva</name><Point><coordinates>-0.77824,39.43335,0</coordinates></Point></Placemark><Placemark><name>T_FI BBS ES N-125 PK-5.7 - Zaragoza D @ (Zaragoza) - Ache</name><Point><coordinates>-0.98213,41.66361,0</coordinates></Point></Placemark><Placemark><name>T_FI BBS ES N-125 PK-7.9 - Zaragoza A @ (Zaragoza) - Ache</name><Point><coordinates>-0.95687,41.66163,0</coordinates></Point></Placemark><Placemark><name>T_FI BBS ES Z-40 PK-29.7 - Zaragoza A @ (Zaragoza) - murfizgz</name><Point><coordinates>-0.94952,41.61928,0</coordinates></Point></Placemark><Placemark><name>T_FI BBS ES N-232 PK-222.8 - El Burgo de Ebro A (Zaragoza) - wyxchari</name><Point><coordinates>-0.75147,41.5717,0</coordinates></Point></Placemark><Placemark><name>T_FI BBS ES N-232 PK-218.1 - El Burgo de Ebro D (Zaragoza) - wyxchari</name><Point><coordinates>-0.70499,41.54796,0</coordinates></Point></Placemark><Placemark><name>T_FI BBS ES CV-62 PK-5.3 - El Palomar A @ (Valencia) - arikato</name><Point><coordinates>-0.50535,38.85257,0</coordinates></Point></Placemark><Placemark><name>T_FI BBS ES CV-62 PK-4.2 - El Palomar D @ (Valencia) - enclisa</name><Point><coordinates>-0.49648,38.85746,0</coordinates></Point></Placemark><Placemark><name>T_FI BBS ES A-3 PK-349.2 - Quart de Poblet A (Valencia) - ARIAD</name><Point><coordinates>-0.44828,39.47831,0</coordinates></Point></Placemark><Placemark><name>T_FI BBS ES V-30 PK-8.9 - Valencia A (Valencia) - ARIAD</name><Point><coordinates>-0.42098,39.46912,0</coordinates></Point></Placemark><Placemark><name>T_FI BBS ES CV-35 PK-3.7 - Burjasot D (Valencia) - tai</name><Point><coordinates>-0.41468,39.50437,0</coordinates></Point></Placemark><Placemark><name>T_FI BBS ES V-31 PK-6.3 - Beniparrell  A (Valencia) - wyxchari</name><Point><coordinates>-0.39799,39.38365,0</coordinates></Point></Placemark><Placemark><name>T_FI BBS ES CV-60 PK-16.8 - Castelló de Rugat D (Valencia) - kpax164</name><Point><coordinates>-0.39067,38.87747,0</coordinates></Point></Placemark><Placemark><name>T_FI BBS ES CV-60 PK-22.8 - Terrateig A (Valencia) - kpax164</name><Point><coordinates>-0.32899,38.89773,0</coordinates></Point></Placemark><Placemark><name>T_FI BBS ES CV-500 PK-9 - Valencia D (Valencia) - Forocoches</name><Point><coordinates>-0.3247,39.35389,0</coordinates></Point></Placemark><Placemark><name>T_FI BBS ES CV-500 PK PK-14.6 - El Perellonet A (Valencia) - Forocoches</name><Point><coordinates>-0.29968,39.30931,0</coordinates></Point></Placemark><Placemark><name>T_FI BBS ES V-23 PK-1.6 - Sagunto D (Valencia) - cliford</name><Point><coordinates>-0.29152,39.63924,0</coordinates></Point></Placemark><Placemark><name>T_FI BBS ES N-340 PK-960 - Alquerías del Niño Perdido D (Castellón) - Ache</name><Point><coordinates>-0.13722,39.8784,0</coordinates></Point></Placemark><Placemark><name>T_FI BBS ES N-340 PK-961.1 - Alquerías del Niño Perdido A (Castellón) - Ache</name><Point><coordinates>-0.13054,39.88536,0</coordinates></Point></Placemark><Placemark><name>T_FI BBS ES Polígono Pp Cds Encinas - Benitachell (Alicante) - wyxchari</name><Point><coordinates>0.16611,38.72464,0</coordinates></Point></Placemark><Placemark><name>T_FI BBS ES Polígono Pp Cds Encinas. 69 - Benitachell (Alicante) - wyxchari</name><Point><coordinates>0.16787,38.72016,0</coordinates></Point></Placemark><Placemark><name>T_FI BBS ES N-340 PK-1033 - Sta Magdalena de Pulpis D (Castellón) - combo</name><Point><coordinates>0.31589,40.3656,0</coordinates></Point></Placemark><Placemark><name>T_FI BBS ES N-340 PK-1035.8 - Peñíscola A (Castellón) - combo</name><Point><coordinates>0.34012,40.38331,0</coordinates></Point></Placemark><Placemark><name>T_FI BBS ES AP-7 PK-325.1 - Amposta D (Tarragona) - Ache</name><Point><coordinates>0.56149,40.71822,0</coordinates></Point></Placemark><Placemark><name>T_FI BBS ES N-340 PK-1079.2 - Sant Carles de la Rapita A @ (Tarragona) - alex333</name><Point><coordinates>0.58317,40.68731,0</coordinates></Point></Placemark><Placemark><name>T_FI BBS ES N-340 PK-1074.8 - Sant Carles de la Rapita D @ (Tarragona) - alex333</name><Point><coordinates>0.59124,40.6488,0</coordinates></Point></Placemark><Placemark><name>T_FI BBS ES AP-2 PK-154 - Castelldans D (Lérida) - Ache</name><Point><coordinates>0.76412,41.50678,0</coordinates></Point></Placemark><Placemark><name>T_FI BBS ES AP-2 PK-160.1 - Juneda A (Lérida) - Ache</name><Point><coordinates>0.83399,41.51012,0</coordinates></Point></Placemark><Placemark><name>T_FI BBS ES A-2 PK-501.5 - Anglesola D (Lérida) - Ache</name><Point><coordinates>1.07466,41.64444,0</coordinates></Point></Placemark><Placemark><name>T_FI BBS ES A-2 PK-506.6 - Tarrega A (Lérida) - Ache</name><Point><coordinates>1.12778,41.65786,0</coordinates></Point></Placemark><Placemark><name>T_FI BBS ES N-230 PK-150.6 - Vielha D @ (Lérida) - Ache</name><Point><coordinates>0.76482,42.62316,0</coordinates></Point></Placemark><Placemark><name>T_FI BBS ES N-230 PK-156.1 - Vielha A @ (Lérida) - Ache</name><Point><coordinates>0.77835,42.67184,0</coordinates></Point></Placemark><Placemark><name>T_FI BBS ES A-7 PK-1159.7 - Tarragona D @ (Tarragona) - Ache</name><Point><coordinates>1.21523,41.1306,0</coordinates></Point></Placemark><Placemark><name>T_FI BBS ES C-14 PK-124.6 - Vilanova de la Aguda D @ (Lérida) - Ache</name><Point><coordinates>1.25651,41.93918,0</coordinates></Point></Placemark><Placemark><name>T_FI BBS ES A-7 PK-1163.7 - Tarragona A @ (Tarragona) - Ache</name><Point><coordinates>1.26101,41.12306,0</coordinates></Point></Placemark><Placemark><name>T_FI BBS ES C-14 PK-134.2 - Basella A @ (Lérida) - Ache</name><Point><coordinates>1.29402,42.00709,0</coordinates></Point></Placemark><Placemark><name>T_FI BBS ES A-2 PK-539.1 - Argensola D (Barcelona) - Ache</name><Point><coordinates>1.47038,41.63099,0</coordinates></Point></Placemark><Placemark><name>T_FI BBS ES A-2 PK-545.3 - Jorba A (Barcelona) - Ache</name><Point><coordinates>1.53231,41.60868,0</coordinates></Point></Placemark><Placemark><name>T_FI BBS ES C-31 PK-150.5 - Vilanova i la Geltrú D (Barcelona) - Ache</name><Point><coordinates>1.69117,41.21201,0</coordinates></Point></Placemark><Placemark><name>T_FI BBS ES C-31 PK-157.1 - Sant Pere de Ribes A (Barcelona) - Ache</name><Point><coordinates>1.75296,41.23923,0</coordinates></Point></Placemark><Placemark><name>T_FI BBS ES A-2 PK-570.4 - El Bruc A (Barcelona) - Forocoches</name><Point><coordinates>1.77836,41.57941,0</coordinates></Point></Placemark><Placemark><name>T_FI BBS AD CG-1 PK-10.4 - Sant Julià de Lòria A (Andorra) - Ache</name><Point><coordinates>1.47707,42.44049,0</coordinates></Point></Placemark><Placemark><name>T_FI BBS AD CG3 PK-4.2 Tunel San Antoni (Boca Norte) - Andorra A (Andorra) - Ache</name><Point><coordinates>1.5209,42.52924,0</coordinates></Point></Placemark><Placemark><name>T_FI BBS AD Pont de Lisboa Túnel dels Dos Valires AD200 - Encamp @ (Andorra) - Ache</name><Point><coordinates>1.52269,42.52901,0</coordinates></Point></Placemark><Placemark><name>T_FI BBS AD CG-3 PK-1.7 Tunel de Pont Pla (Boca Sur) - Andorra D @ (Andorra) - Ache</name><Point><coordinates>1.53303,42.51071,0</coordinates></Point></Placemark><Placemark><name>T_FI BBS AD Túnel dels Dos Valires AD200 - Encamp @ (Andorra) - Ache</name><Point><coordinates>1.55423,42.51848,0</coordinates></Point></Placemark><Placemark><name>T_FI BBS AD CG-2 PK-2.7 - Encamp D @ (Andorra) - Ache</name><Point><coordinates>1.55689,42.51984,0</coordinates></Point></Placemark><Placemark><name>T_FI BBS AD CG-2 PK-4.3 - Encamp A @ (Andorra) - Ache</name><Point><coordinates>1.57128,42.52893,0</coordinates></Point></Placemark><Placemark><name>T_FI BBS AD CG-2 PK-6.2 - Encamp D (Andorra) - Ache</name><Point><coordinates>1.5892,42.53706,0</coordinates></Point></Placemark><Placemark><name>T_FI BBS ES Ma-3011 PK-1.5 - Palma D (Baleares) - Forocoches</name><Point><coordinates>2.69347,39.5751,0</coordinates></Point></Placemark><Placemark><name>T_FI BBS ES Ma-3011 PK-2.5 - Palma A (Baleares) - Forocoches</name><Point><coordinates>2.70443,39.57777,0</coordinates></Point></Placemark><Placemark><name>T_FI BBS ES Ma-15 PK-5.1 - Son Ferriol D (Baleares) - wyxchari</name><Point><coordinates>2.71556,39.56769,0</coordinates></Point></Placemark><Placemark><name>T_FI BBS ES Ma-13A PK-10.9 - Marratxí D (Baleares) - Ache</name><Point><coordinates>2.73973,39.63536,0</coordinates></Point></Placemark><Placemark><name>T_FI BBS ES Ma-6014 PK-2.3 - El Arenal A (Baleares) - Ache</name><Point><coordinates>2.74738,39.48754,0</coordinates></Point></Placemark><Placemark><name>T_FI BBS ES Ma-13A PK-12.3 - Marratxí A (Baleares) - Ache</name><Point><coordinates>2.74743,39.64554,0</coordinates></Point></Placemark><Placemark><name>T_FI BBS ES Ma-6014 PK-1.5 - El Arenal D (Baleares) - Ache</name><Point><coordinates>2.75228,39.49217,0</coordinates></Point></Placemark><Placemark><name>T_FI BBS ES A-2 PK-596.6 - Pallejá D (Barcelona) - urbo83</name><Point><coordinates>1.99303,41.43637,0</coordinates></Point></Placemark><Placemark><name>T_FI BBS ES Av. de Clara Campoamor - Viladecans (Barcelona) - Forocoches</name><Point><coordinates>2.02856,41.32289,0</coordinates></Point></Placemark><Placemark><name>T_FI BBS ES B-204 PK-1.4 - Viladecans D (Barcelona) - Forocoches</name><Point><coordinates>2.02951,41.30557,0</coordinates></Point></Placemark><Placemark><name>T_FI BBS ES B-204 PK-2.2 Viladecans A (Barcelona) - Forocoches</name><Point><coordinates>2.03389,41.30039,0</coordinates></Point></Placemark><Placemark><name>T_FI BBS ES Cami del mar 2D - Viladecans (Barcelona) - Forocoches</name><Point><coordinates>2.03575,41.29862,0</coordinates></Point></Placemark><Placemark><name>T_FI BBS ES Cami del mar 1A - Viladecans (Barcelona) - Forocoches</name><Point><coordinates>2.04948,41.28168,0</coordinates></Point></Placemark><Placemark><name>T_FI BBS ES C-16 PK-11.3 - Sant Cugat del Valles A (Barcelona) - Ache</name><Point><coordinates>2.06491,41.47165,0</coordinates></Point></Placemark><Placemark><name>T_FI BBS ES C-16 PK-8.3 - Sant Cugat del Valles D @ (Barcelona) - Ache</name><Point><coordinates>2.069,41.44596,0</coordinates></Point></Placemark><Placemark><name>T_FI BBS ES C-16 PK-5.2 - Barcelona A (Barcelona) - wyxchari</name><Point><coordinates>2.09211,41.42573,0</coordinates></Point></Placemark><Placemark><name>T_FI BBS ES C-16 PK-2.1 - Barcelona D (Barcelona) - wyxchari</name><Point><coordinates>2.11571,41.40603,0</coordinates></Point></Placemark><Placemark><name>T_FI BBS ES C-16 PK-105.5 - Serchs D (Barcelona) - Ache</name><Point><coordinates>1.85867,42.15881,0</coordinates></Point></Placemark><Placemark><name>T_FI BBS ES C-16 PK-107.55 - Serchs A (Barcelona) - Ache</name><Point><coordinates>1.86107,42.17299,0</coordinates></Point></Placemark><Placemark><name>T_FI BBS ES C-58 PK-13.5 - San Quirico de Tarrasa D (Barcelona) - wyxchari</name><Point><coordinates>2.08898,41.53503,0</coordinates></Point></Placemark><Placemark><name>T_FI BBS ES Túnel Badal PK-2.5 - Barcelona A (Barcelona) - defensor</name><Point><coordinates>2.12744,41.38525,0</coordinates></Point></Placemark><Placemark><name>T_FI BBS ES Túnel Badal PK-2.1 - Barcelona A (Barcelona) - defensor</name><Point><coordinates>2.12792,41.38345,0</coordinates></Point></Placemark><Placemark><name>T_FI BBS ES Túnel Badal PK-1.8 - Barcelona A (Barcelona) - defensor</name><Point><coordinates>2.12893,41.38058,0</coordinates></Point></Placemark><Placemark><name>T_FI BBS ES Túnel Badal PK-0.8 - Barcelona D (Barcelona) - defensor</name><Point><coordinates>2.13203,41.37054,0</coordinates></Point></Placemark><Placemark><name>T_FI BBS ES Túnel Badal PK-0 - Barcelona D (Barcelona) - defensor</name><Point><coordinates>2.13456,41.3661,0</coordinates></Point></Placemark><Placemark><name>T_FI BBS ES Túnel Rovira PK-0 - Barcelona D (Barcelona) - Ache</name><Point><coordinates>2.15844,41.42378,0</coordinates></Point></Placemark><Placemark><name>T_FI BBS ES C-58 BUS-VAO PK-3 - Moncada y Reixach A (Barcelona) - akatarmo</name><Point><coordinates>2.16313,41.47341,0</coordinates></Point></Placemark><Placemark><name>T_FI BBS ES Túnel Rovira PK-1.3 - Barcelona A (Barcelona) - Ache</name><Point><coordinates>2.16641,41.41369,0</coordinates></Point></Placemark><Placemark><name>T_FI BBS ES C-58 BUS-VAO PK-1.8 - Moncada y Reixach D (Barcelona) - akatarmo</name><Point><coordinates>2.17367,41.4664,0</coordinates></Point></Placemark><Placemark><name>T_FI BBS ES B-10 PK-11.5 - Barcelona A @ (Barcelona) - Ache</name><Point><coordinates>2.17629,41.37279,0</coordinates></Point></Placemark><Placemark><name>T_FI BBS ES B-10 PK-11.2 - Barcelona A (Barcelona) - Ache</name><Point><coordinates>2.17637,41.3742,0</coordinates></Point></Placemark><Placemark><name>T_FI BBS ES B-20 PK-15.1 - Barcelona A @ (Barcelona) - FerScrich</name><Point><coordinates>2.18173,41.44632,0</coordinates></Point></Placemark><Placemark><name>T_FI BBS ES C-31 PK-205.4 -  Barcelona D (Barcelona) - Ache</name><Point><coordinates>2.18436,41.40167,0</coordinates></Point></Placemark><Placemark><name>T_FI BBS ES B-10 PK-9.7 - Barcelona D @ (Barcelona) - Ache</name><Point><coordinates>2.18735,41.38258,0</coordinates></Point></Placemark><Placemark><name>T_FI BBS ES C-31 PK-206.6 -  Barcelona A (Barcelona) - Ache</name><Point><coordinates>2.19477,41.4092,0</coordinates></Point></Placemark><Placemark><name>T_FI BBS ES C-31 PK-211.4 - Badalona D (Barcelona) - carlosgzlez</name><Point><coordinates>2.2298,41.44228,0</coordinates></Point></Placemark><Placemark><name>T_FI BBS ES C-31 PK-215.2 - Badalona A (Barcelona) - carlosgzlez</name><Point><coordinates>2.26441,41.46171,0</coordinates></Point></Placemark><Placemark><name>T_FI BBS ES C-59 PK-4.9 - Palau-solità i Plegamans D (Barcelona) - Ache</name><Point><coordinates>2.18556,41.5586,0</coordinates></Point></Placemark><Placemark><name>T_FI BBS ES C-59 PK-8.8 - Palau-solità i Plegamans A (Barcelona) - Ache</name><Point><coordinates>2.18575,41.5927,0</coordinates></Point></Placemark><Placemark><name>T_FI BBS ES AP-7 PK-140.5 - Sta. Perpetua de Moguda D (Barcelona) - wyxchari</name><Point><coordinates>2.19819,41.5469,0</coordinates></Point></Placemark><Placemark><name>T_FI BBS ES C-17 PK-41.1 - Centelles A (Barcelona) - Ache</name><Point><coordinates>2.24544,41.77201,0</coordinates></Point></Placemark><Placemark><name>T_FI BBS ES C-17 PK-16.2 - Parets del Valles D (Barcelona) - Ache</name><Point><coordinates>2.24836,41.57325,0</coordinates></Point></Placemark><Placemark><name>T_FI BBS ES C-17 PK-37.8 - Tagamanent D (Barcelona) - wyxchari</name><Point><coordinates>2.25963,41.74977,0</coordinates></Point></Placemark><Placemark><name>T_FI BBS ES C-17 PK-18.3 - Granollers D (Barcelona) - Ache</name><Point><coordinates>2.25998,41.58993,0</coordinates></Point></Placemark><Placemark><name>T_FI BBS ES Avinguda d'Alp - La Molina (Gerona) - wyxchari</name><Point><coordinates>1.94892,42.34418,0</coordinates></Point></Placemark><Placemark><name>T_FI BBS ES GIV-4082 PK-6.7 - La Molina D (Gerona) - wyxchari</name><Point><coordinates>1.95469,42.34646,0</coordinates></Point></Placemark><Placemark><name>T_FI BBS ES N-2 PK-709.5 - Fornells de la Selva D (Gerona) - Ache</name><Point><coordinates>2.80235,41.93138,0</coordinates></Point></Placemark><Placemark><name>T_FI BBS ES N-2 PK-713.85 - Quart A (Gerona) - Ache</name><Point><coordinates>2.83862,41.95671,0</coordinates></Point></Placemark><Placemark><name>T_FI BBS ES N-2 PK-716.6 - Gerona D (Gerona) - Ache</name><Point><coordinates>2.84615,41.97645,0</coordinates></Point></Placemark><Placemark><name>T_FI BBS ES N-2 PK-719.6 - Gerona A (Gerona) - Ache</name><Point><coordinates>2.8471,42.00378,0</coordinates></Point></Placemark><Placemark><name>T_FI BBS ES C-65 PK-12.1 - Llagostera D (Gerona) - wyxchari</name><Point><coordinates>2.90475,41.83374,0</coordinates></Point></Placemark><Placemark><name>T_FI BBS ES C-66 PK-24.8 - Sant Marti Vell A @ (Gerona) - Ache</name><Point><coordinates>2.92698,42.04059,0</coordinates></Point></Placemark><Placemark><name>T_FI BBS ES C-66 PK-15.9 - Corsa D @ (Gerona) - Ache</name><Point><coordinates>3.0013,42.00472,0</coordinates></Point></Placemark><Placemark><name>T_FI BBS ES N-2 PK-771.7 - Agullana A @ (Gerona) - Ache</name><Point><coordinates>2.88364,42.39076,0</coordinates></Point></Placemark><Placemark><name>T_FI BBS ES N-2 PK-769.1 - Capmany D @ (Gerona) - Ache</name><Point><coordinates>2.89595,42.36904,0</coordinates></Point></Placemark><Placemark><name>T_FI BBS ES N-2 PK-758.9 -  Llers A (Gerona) - Ache</name><Point><coordinates>2.94799,42.29201,0</coordinates></Point></Placemark><Placemark><name>T_FI BBS ES N-2 PK-751.4 - Alfar D (Gerona) - wyxchari</name><Point><coordinates>2.98335,42.24027,0</coordinates></Point></Placemark><Placemark><name>T_FI BBS ES GI-8594 PK-3.2 - Fortià D @ (Gerona) - Forocoches</name><Point><coordinates>3.03189,42.24152,0</coordinates></Point></Placemark><Placemark><name>T_FI BBS ES GIV-6213 PK-1.6 - Fortià D @ (Gerona) - Forocoches</name><Point><coordinates>3.04369,42.24662,0</coordinates></Point></Placemark></Folder></kml>
