<?xml version="1.0" encoding="ISO-8859-1"?>
<kml xmlns="http://earth.google.com/kml/2.0"><Folder><Placemark><name>LINE BBS ES A-6 PK-22.4- Madrid A (Madrid) - FerScrich</name><Point><coordinates>-3.8865,40.52525,0</coordinates></Point></Placemark><Placemark><name>LINE BBS ES A-6 PK-20.2 - Las Rozas de Madrid D (Madrid) - caceres222</name><Point><coordinates>-3.87717,40.50683,0</coordinates></Point></Placemark><Placemark><name>LINE BBS ES A-42 PK-17.3 - Fuenlabrada D (Madrid) - anchonyo</name><Point><coordinates>-3.75332,40.27179,0</coordinates></Point></Placemark><Placemark><name>LINE BBS ES A-42 PK-16.9 - Fuenlabrada D (Madrid) - anchonyo</name><Point><coordinates>-3.75104,40.2751,0</coordinates></Point></Placemark><Placemark><name>LINE BBS ES A-1 PK-15.95 - Alcobendas D (Madrid) - Poteo_Roke</name><Point><coordinates>-3.63466,40.53329,0</coordinates></Point></Placemark><Placemark><name>LINE BBS ES A-2 PK-11.8. - San Blas-Canillejas D (Madrid) - Poteo_Roke</name><Point><coordinates>-3.57539,40.45003,0</coordinates></Point></Placemark><Placemark><name>Radares BBS www.laradiobbs.net Actualizacion: viernes, 27 de diciembre de 2024 a las 10:08 - Semana: 52</name><Point><coordinates>0,0,0</coordinates></Point></Placemark></Folder></kml>
