<?xml version="1.0" encoding="ISO-8859-1"?>
<kml xmlns="http://earth.google.com/kml/2.0"><Folder><Placemark><name>SEMA BBS ES Ctra. del Rosario 65 - Santa Cruz de Tenerife (Sta. Cruz de Tenerife) - Ache</name><Point><coordinates>-16.27815,28.45382,0</coordinates></Point></Placemark><Placemark><name>SEMA BBS ES Av. de San Sebastián 112 - Santa Cruz de Tenerife (Sta. Cruz de Tenerife) - Ache</name><Point><coordinates>-16.2568,28.46358,0</coordinates></Point></Placemark><Placemark><name>SEMA BBS ES Rua Fernández Varela 1 A - Pobra do Caramiñal (La Coruña) - FerScrich</name><Point><coordinates>-8.93789,42.60639,0</coordinates></Point></Placemark><Placemark><name>SEMA BBS ES Av. de Vilanova 8 - Villagarcía de Arosa (Pontevedra) - Ache</name><Point><coordinates>-8.78703,42.58572,0</coordinates></Point></Placemark><Placemark><name>SEMA BBS ES Av. del Doctor Tourón 57 - Vilagarcía de Arousa (Pontevedra) - Ache</name><Point><coordinates>-8.77012,42.58969,0</coordinates></Point></Placemark><Placemark><name>SEMA BBS ES Av. Rosalía de Castro 41A - Vilagarcia de Arousa (Pontevedra) - Ache</name><Point><coordinates>-8.76612,42.60354,0</coordinates></Point></Placemark><Placemark><name>SEMA BBS ES Av. Agustín Romero 50 - Villagarcía de Arousa (Pontevedra) - Ache</name><Point><coordinates>-8.76481,42.58894,0</coordinates></Point></Placemark><Placemark><name>SEMA BBS ES Av. Xoan Carlos I 18 - Vilagarcia de Arousa (Pontevedra) - Ache</name><Point><coordinates>-8.76432,42.59775,0</coordinates></Point></Placemark><Placemark><name>SEMA BBS ES Av. Andalucía 6 - San Juan del Puerto (Huelva) - Ache</name><Point><coordinates>-6.84471,37.31515,0</coordinates></Point></Placemark><Placemark><name>SEMA BBS ES A-5000 PK-9.1 - San Juan del Puerto D (Huelva) - Ache</name><Point><coordinates>-6.8444,37.31503,0</coordinates></Point></Placemark><Placemark><name>SEMA BBS ES N-435a PK-209.9 - Beas D (Huelva) - Ache</name><Point><coordinates>-6.79895,37.42335,0</coordinates></Point></Placemark><Placemark><name>SEMA BBS ES N-435a PK-209.9 - Beas A (Huelva) - Ache</name><Point><coordinates>-6.79882,37.42387,0</coordinates></Point></Placemark><Placemark><name>SEMA BBS ES Calle Don Francisco Bernal 56 - Zalamea la Real (Huelva) - Ache</name><Point><coordinates>-6.65669,37.67648,0</coordinates></Point></Placemark><Placemark><name>SEMA BBS ES Calle Crucecitas 5 - Zalamea la Real (Huelva) - Ache</name><Point><coordinates>-6.65624,37.67638,0</coordinates></Point></Placemark><Placemark><name>SEMA BBS ES Rúa Fomento 19 - Carballo (La Coruña) - Todopoi</name><Point><coordinates>-8.6916,43.21145,0</coordinates></Point></Placemark><Placemark><name>SEMA BBS ES Av. de Romero Donallo 17 - Santiago de Compostela (La Coruña) - Ache</name><Point><coordinates>-8.55155,42.87198,0</coordinates></Point></Placemark><Placemark><name>SEMA BBS ES Rúa de Amor Ruiba 26 - Santiago de Compostela (La Coruña) - Ache</name><Point><coordinates>-8.54655,42.8679,0</coordinates></Point></Placemark><Placemark><name>SEMA BBS ES Av. de Xoán XXIII - Santiago de Compostela (La Coruña) - Forocoches</name><Point><coordinates>-8.53622,42.88915,0</coordinates></Point></Placemark><Placemark><name>SEMA BBS ES Rúa de San Caetano - Santiago de Compostela (La Coruña) - Ache</name><Point><coordinates>-8.53338,42.8917,0</coordinates></Point></Placemark><Placemark><name>SEMA BBS ES Av. Finisterre 7 - La Coruña (La Coruña) - Ache</name><Point><coordinates>-8.40951,43.36677,0</coordinates></Point></Placemark><Placemark><name>SEMA BBS ES Rua Juan Florez 71 - La Coruña (La Coruña) - Ache</name><Point><coordinates>-8.40801,43.36235,0</coordinates></Point></Placemark><Placemark><name>SEMA BBS ES Av. Linares Rivas 35 - La Coruña (La Coruña) - Ache</name><Point><coordinates>-8.40556,43.36248,0</coordinates></Point></Placemark><Placemark><name>SEMA BBS ES Plaza de Ourense 2 - La Coruña (La Coruña) - Ache</name><Point><coordinates>-8.4054,43.36496,0</coordinates></Point></Placemark><Placemark><name>SEMA BBS ES Estrada de Castela 103 - Narón (La Coruña) - Ache</name><Point><coordinates>-8.19954,43.49787,0</coordinates></Point></Placemark><Placemark><name>SEMA BBS ES Av. de Galicia 2 - Vivero (Lugo) - Todopoi</name><Point><coordinates>-7.59557,43.66343,0</coordinates></Point></Placemark><Placemark><name>SEMA BBS ES Ronda da Muralla - Lugo (Lugo) - Ache</name><Point><coordinates>-7.56268,43.01214,0</coordinates></Point></Placemark><Placemark><name>SEMA BBS ES Av. Antonio Masa Campos 39 - Badajoz (Badajoz) - caceres222</name><Point><coordinates>-6.98055,38.87282,0</coordinates></Point></Placemark><Placemark><name>SEMA BBS ES Av. Antonio Masa Campos 30B - Badajoz (Badajoz) - Todopoi</name><Point><coordinates>-6.97893,38.87085,0</coordinates></Point></Placemark><Placemark><name>SEMA BBS ES Av. Juan Sebastian Elcano 5 - Badajoz (Badajoz) - Todopoi</name><Point><coordinates>-6.97248,38.86933,0</coordinates></Point></Placemark><Placemark><name>SEMA BBS ES Av. Juan Sebastian Elcano 70A - Badajoz (Badajoz) - Ache</name><Point><coordinates>-6.96539,38.87096,0</coordinates></Point></Placemark><Placemark><name>SEMA BBS ES Ctra. de Sevilla 3 - Badajoz (Badajoz) - Ache</name><Point><coordinates>-6.96003,38.87272,0</coordinates></Point></Placemark><Placemark><name>SEMA BBS ES Av. de Hernán Cortés 16 - Cáceres (Cáceres) - Ache</name><Point><coordinates>-6.37918,39.47463,0</coordinates></Point></Placemark><Placemark><name>SEMA BBS ES Av. Antonio Hurtado 3 - Cáceres @ (Cáceres) - FerScrich</name><Point><coordinates>-6.37859,39.46811,0</coordinates></Point></Placemark><Placemark><name>SEMA BBS ES Av. Antonio Hurtado 14 - Cáceres @ (Cáceres) - FerScrich</name><Point><coordinates>-6.37784,39.46689,0</coordinates></Point></Placemark><Placemark><name>SEMA BBS ES Av. de Hernán Cortés 88 - Cáceres (Cáceres) - FerScrich</name><Point><coordinates>-6.37677,39.47898,0</coordinates></Point></Placemark><Placemark><name>SEMA BBS ES N-634 PK-504.9 - Luarca D (Asturias) - wyxchari</name><Point><coordinates>-6.53389,43.54192,0</coordinates></Point></Placemark><Placemark><name>Radares BBS www.laradiobbs.net Actualizacion: miércoles, 7 de mayo de 2025 a las 07:08 - Semana: 19</name><Point><coordinates>0,0,0</coordinates></Point></Placemark><Placemark><name>SEMA BBS ES Av. Carlos III - Sevilla (Sevilla) - Ache</name><Point><coordinates>-6.01227,37.39611,0</coordinates></Point></Placemark><Placemark><name>SEMA BBS ES Av. Carlos III - Sevilla (Sevilla) - Ache</name><Point><coordinates>-6.01057,37.40432,0</coordinates></Point></Placemark><Placemark><name>SEMA BBS ES Av. Concejal Alberto Jiménez-Becerril 224 - Sevilla (Sevilla) - Todopoi</name><Point><coordinates>-5.99322,37.40715,0</coordinates></Point></Placemark><Placemark><name>SEMA BBS ES Av. Juventudes Musicales 6 - Sevilla (Sevilla) - wyxchari</name><Point><coordinates>-5.98423,37.41324,0</coordinates></Point></Placemark><Placemark><name>SEMA BBS ES Av. kansas City 17 - Sevilla (Sevilla) - guaje47</name><Point><coordinates>-5.9707,37.39354,0</coordinates></Point></Placemark><Placemark><name>SEMA BBS ES SE-30 PK-25.7 - Sevilla D (Sevilla) - wyxchari</name><Point><coordinates>-5.96922,37.41694,0</coordinates></Point></Placemark><Placemark><name>SEMA BBS ES SE-30 PK-25.9 - Sevilla A (Sevilla) - wyxchari</name><Point><coordinates>-5.96641,37.41712,0</coordinates></Point></Placemark><Placemark><name>SEMA BBS ES Av. Ronda del Tamarguillo 25 - Sevilla (Sevilla) - Ache</name><Point><coordinates>-5.96609,37.37192,0</coordinates></Point></Placemark><Placemark><name>SEMA BBS ES Av. Ronda del Tamarguillo - Sevilla (Sevilla) - Ache</name><Point><coordinates>-5.9631,37.37463,0</coordinates></Point></Placemark><Placemark><name>SEMA BBS ES SE-20 PK-3.1 - Sevilla D @ (Sevilla) - Todopoi</name><Point><coordinates>-5.94763,37.42266,0</coordinates></Point></Placemark><Placemark><name>SEMA BBS ES SE-20 PK-3 - Sevilla A @ (Sevilla) - Todopoi</name><Point><coordinates>-5.9471,37.42251,0</coordinates></Point></Placemark><Placemark><name>SEMA BBS ES Av. Alcalde Luis Uruñuela 216 - Sevilla @ (Sevilla) - Ache</name><Point><coordinates>-5.93589,37.4045,0</coordinates></Point></Placemark><Placemark><name>SEMA BBS ES Av. Alcalde Luis Uruñuela 27 - Sevilla @ (Sevilla) - Ache</name><Point><coordinates>-5.93539,37.40497,0</coordinates></Point></Placemark><Placemark><name>SEMA BBS ES Calle San Juan Bosco 1 - Utrera (Sevilla) - uam</name><Point><coordinates>-5.77831,37.1828,0</coordinates></Point></Placemark><Placemark><name>SEMA BBS ES A-431 PK-2.9 - Córdoba D @ (Córdoba) - Ache</name><Point><coordinates>-4.81674,37.88134,0</coordinates></Point></Placemark><Placemark><name>SEMA BBS ES A-431 PK-2.8 - Córdoba A @ (Córdoba) - Ache</name><Point><coordinates>-4.81566,37.88178,0</coordinates></Point></Placemark><Placemark><name>SEMA BBS ES Av. del Calasancio 26 - Cordoba (Córdoba) - JayKay</name><Point><coordinates>-4.78741,37.90724,0</coordinates></Point></Placemark><Placemark><name>SEMA BBS ES Av. de San José de Calasanz 21 - Córdoba (Córdoba) - wyxchari</name><Point><coordinates>-4.78538,37.91446,0</coordinates></Point></Placemark><Placemark><name>SEMA BBS ES Av. del Corregidor 14 - Cordoba (Córdoba) - Forocoches</name><Point><coordinates>-4.78463,37.873,0</coordinates></Point></Placemark><Placemark><name>SEMA BBS ES N-331 PK-31.9 - Fernan Nuñez A (Córdoba) - Forocoches</name><Point><coordinates>-4.72994,37.66821,0</coordinates></Point></Placemark><Placemark><name>SEMA BBS ES N-331 PK-32 - Fernan Nuñez D (Córdoba) - Forocoches</name><Point><coordinates>-4.72914,37.66806,0</coordinates></Point></Placemark><Placemark><name>SEMA BBS ES Briones. 19 - Pinos Puente (Granada) - wyxchari</name><Point><coordinates>-3.75415,37.25023,0</coordinates></Point></Placemark><Placemark><name>SEMA BBS ES Mariana Pineda 92 - Santa Fe (Granada) - wyxchari</name><Point><coordinates>-3.71002,37.18718,0</coordinates></Point></Placemark><Placemark><name>SEMA BBS ES A-422 PK-28.4 - Belalcazar A/D (Córdoba) - Forocoches</name><Point><coordinates>-5.16382,38.57408,0</coordinates></Point></Placemark><Placemark><name>SEMA BBS ES Paseo de las Canalejas 112 - Salamanca @ (Salamanca) - Ache</name><Point><coordinates>-5.65876,40.96317,0</coordinates></Point></Placemark><Placemark><name>SEMA BBS ES Av. de la Serna 10 - Sta. Marta de Tormes (Salamanca) - Ache</name><Point><coordinates>-5.64067,40.95126,0</coordinates></Point></Placemark><Placemark><name>SEMA BBS ES Calle las Columnas - Sta. Marta de Tormes (Salamanca) - Ache</name><Point><coordinates>-5.6405,40.95024,0</coordinates></Point></Placemark><Placemark><name>SEMA BBS ES Av. Jose Fernandin 3 - Piedras Blancas (Asturias) - Ache</name><Point><coordinates>-5.97436,43.55987,0</coordinates></Point></Placemark><Placemark><name>SEMA BBS ES Calle de la Independencia 43 - Oviedo (Asturias) - Forocoches</name><Point><coordinates>-5.85836,43.36322,0</coordinates></Point></Placemark><Placemark><name>SEMA BBS ES Ronda-Sur - Oviedo (Asturias) - Ache</name><Point><coordinates>-5.85504,43.35598,0</coordinates></Point></Placemark><Placemark><name>SEMA BBS ES Av. de Santander 14 - Oviedo (Asturias) - wyxchari</name><Point><coordinates>-5.8529,43.36708,0</coordinates></Point></Placemark><Placemark><name>SEMA BBS ES C/ San Mateo 1 - Oviedo (Asturias) - Forocoches</name><Point><coordinates>-5.84349,43.35457,0</coordinates></Point></Placemark><Placemark><name>SEMA BBS ES General Elorza 21 - Oviedo @ (Asturias) - Ache</name><Point><coordinates>-5.84233,43.36584,0</coordinates></Point></Placemark><Placemark><name>SEMA BBS ES Adelantado de la Florida - Oviedo (Asturias) - Forocoches</name><Point><coordinates>-5.84133,43.36591,0</coordinates></Point></Placemark><Placemark><name>SEMA BBS ES Bulevar de San Julián de los Prados - Oviedo @ (Asturias) - Todopoi</name><Point><coordinates>-5.84126,43.36636,0</coordinates></Point></Placemark><Placemark><name>SEMA BBS ES Av. del Mar 61 - Oviedo (Asturias) - Forocoches</name><Point><coordinates>-5.83541,43.37536,0</coordinates></Point></Placemark><Placemark><name>SEMA BBS ES Calle Tenderina Alta 50 - Oviedo (Asturias) - Forocoches</name><Point><coordinates>-5.8339,43.365,0</coordinates></Point></Placemark><Placemark><name>SEMA BBS ES Calle Ramón Pérez de Ayala 56 - Mieres (Asturias) - Forocoches</name><Point><coordinates>-5.77779,43.25447,0</coordinates></Point></Placemark><Placemark><name>SEMA BBS ES Manuel Llaneza 2 - Mieres (Asturias) - wyxchari</name><Point><coordinates>-5.77228,43.25007,0</coordinates></Point></Placemark><Placemark><name>SEMA BBS ES Av. Principe de Asturias 31 - Gijon (Asturias) - Ache</name><Point><coordinates>-5.69264,43.53908,0</coordinates></Point></Placemark><Placemark><name>SEMA BBS ES Av. Gaspar Garcia - Gijon (Asturias) - Ache</name><Point><coordinates>-5.6752,43.52759,0</coordinates></Point></Placemark><Placemark><name>SEMA BBS ES Av. Torcuato Fernadez Miranda 24 - Gijón (Asturias) - Ache</name><Point><coordinates>-5.64362,43.53652,0</coordinates></Point></Placemark><Placemark><name>SEMA BBS ES Av. Párroco Pablo Diez 106 - San Andrés del Rabanedo (León) - Ache</name><Point><coordinates>-5.59729,42.59846,0</coordinates></Point></Placemark><Placemark><name>SEMA BBS ES Av. San Ignacio De Loyola 50 - San Andrés del Rabanedo (León) - Ache</name><Point><coordinates>-5.59206,42.60658,0</coordinates></Point></Placemark><Placemark><name>SEMA BBS ES N-610 PK-81.5 - Villanueva del campo D @ (Zamora) - caceres222</name><Point><coordinates>-5.40975,41.98744,0</coordinates></Point></Placemark><Placemark><name>SEMA BBS ES N-610 PK-81 - Villanueva del campo A @ (Zamora) - caceres222</name><Point><coordinates>-5.40423,41.98788,0</coordinates></Point></Placemark><Placemark><name>SEMA BBS ES Av. Dr. Fleming 68 - León (León) - joluhe</name><Point><coordinates>-5.58526,42.59439,0</coordinates></Point></Placemark><Placemark><name>SEMA BBS ES Paseo Salamanca 1 - León (León) - Ache</name><Point><coordinates>-5.5804,42.59601,0</coordinates></Point></Placemark><Placemark><name>SEMA BBS ES Av. Condesa de Sagasta 19 - Leon (León) - joluhe</name><Point><coordinates>-5.57945,42.59849,0</coordinates></Point></Placemark><Placemark><name>SEMA BBS ES Ramón y Cajal 1 - Leon (León) - joluhe</name><Point><coordinates>-5.5717,42.59852,0</coordinates></Point></Placemark><Placemark><name>SEMA BBS ES Alcalde Miguel Castaño 19 - Leon (León) - joluhe</name><Point><coordinates>-5.5681,42.59305,0</coordinates></Point></Placemark><Placemark><name>SEMA BBS ES Avda del Alcalde Miguel Castaño 44 - Leon (León) - joluhe</name><Point><coordinates>-5.5646,42.59145,0</coordinates></Point></Placemark><Placemark><name>SEMA BBS ES Av. de Europa - León (León) - Forocoches</name><Point><coordinates>-5.56262,42.59096,0</coordinates></Point></Placemark><Placemark><name>SEMA BBS ES CL-501 PK-15.2 - Sotillo de la Adrada D (Ávila) - GavilanGS</name><Point><coordinates>-4.59093,40.29372,0</coordinates></Point></Placemark><Placemark><name>SEMA BBS ES Av. Dr. Rodríguez Miñón 95 - Sotillo de la Adrada (Ávila) - GavilanGS</name><Point><coordinates>-4.57551,40.29573,0</coordinates></Point></Placemark><Placemark><name>SEMA BBS ES N-VI PK-95.5 - Labajos D (Segovia) - caceres222</name><Point><coordinates>-4.52293,40.84257,0</coordinates></Point></Placemark><Placemark><name>SEMA BBS ES N-VI PK-95 - Labajos A (Segovia) - caceres222</name><Point><coordinates>-4.52042,40.84105,0</coordinates></Point></Placemark><Placemark><name>SEMA BBS ES N-VI PK-83.4 - Villacastin D @ (Segovia) - jym123</name><Point><coordinates>-4.41063,40.78079,0</coordinates></Point></Placemark><Placemark><name>SEMA BBS ES N-VI PK-83.2 - Villacastin A @ (Segovia) - jym123</name><Point><coordinates>-4.40914,40.77945,0</coordinates></Point></Placemark><Placemark><name>SEMA BBS ES N-VI PK-76.1 - Navas de San Antonio D (Segovia) - Ache</name><Point><coordinates>-4.33405,40.75885,0</coordinates></Point></Placemark><Placemark><name>SEMA BBS ES Ronda Ciruela 34 - Ciudad Real (Ciudad Real) - Ache</name><Point><coordinates>-3.93245,38.98157,0</coordinates></Point></Placemark><Placemark><name>SEMA BBS ES Ronda del Carmen 56 - Ciudad Real (Ciudad Real) - Ache</name><Point><coordinates>-3.92858,38.99584,0</coordinates></Point></Placemark><Placemark><name>SEMA BBS ES Ronda Granada 2 - Ciudad Real (Ciudad Real) - Ache</name><Point><coordinates>-3.9255,38.98123,0</coordinates></Point></Placemark><Placemark><name>SEMA BBS ES Ronda De Calatrava 17 - Ciudad Real (Ciudad Real) - Ache</name><Point><coordinates>-3.92065,38.9867,0</coordinates></Point></Placemark><Placemark><name>SEMA BBS ES Av. de Europa 12 - Toledo (Toledo) - Ache</name><Point><coordinates>-4.0262,39.8695,0</coordinates></Point></Placemark><Placemark><name>SEMA BBS ES N-VI PK-75.7 - Navas de San Antonio A (Segovia) - Ache</name><Point><coordinates>-4.32981,40.75705,0</coordinates></Point></Placemark><Placemark><name>SEMA BBS ES M-510 PK-48.7 - Aldea del Fresno A @ (Madrid) - anchonyo</name><Point><coordinates>-4.20442,40.32711,0</coordinates></Point></Placemark><Placemark><name>SEMA BBS ES M-507 PK-17.3 - Aldea del Fresno A (Madrid) - Forocoches</name><Point><coordinates>-4.20362,40.32397,0</coordinates></Point></Placemark><Placemark><name>SEMA BBS ES M-510 PK-48.8 - Aldea del Fresno D @ (Madrid) - Forocoches</name><Point><coordinates>-4.20312,40.32615,0</coordinates></Point></Placemark><Placemark><name>SEMA BBS ES N-VI PK-63.2 - El Espinar D (Segovia) - Ache</name><Point><coordinates>-4.19812,40.71544,0</coordinates></Point></Placemark><Placemark><name>SEMA BBS ES N-603 PK-64.9 - El Espinar A (Segovia) - Ache</name><Point><coordinates>-4.19112,40.71767,0</coordinates></Point></Placemark><Placemark><name>SEMA BBS ES N-VI PK-61.6 - El Espinar A (Segovia) - Ache</name><Point><coordinates>-4.18043,40.7117,0</coordinates></Point></Placemark><Placemark><name>SEMA BBS ES Paseo de la Alameda - Guadarrama (Madrid) - Mike</name><Point><coordinates>-4.09194,40.67488,0</coordinates></Point></Placemark><Placemark><name>SEMA BBS ES Calle Alfonso Senra 38 - Guadarrama (Madrid) - Ache</name><Point><coordinates>-4.09074,40.67376,0</coordinates></Point></Placemark><Placemark><name>SEMA BBS ES Calle Alonso Senra 15- Guadarrama (Madrid) - Ache</name><Point><coordinates>-4.08924,40.67224,0</coordinates></Point></Placemark><Placemark><name>SEMA BBS ES Sta. Quiteria 36 - Alpedrete (Madrid) - jorgecouto</name><Point><coordinates>-4.02097,40.65422,0</coordinates></Point></Placemark><Placemark><name>SEMA BBS ES Av. Castilla La Mancha 41- Illescas (Toledo) - farma79</name><Point><coordinates>-3.84592,40.12324,0</coordinates></Point></Placemark><Placemark><name>SEMA BBS ES Calle Leganes 31 - Parla (Madrid) - turuz</name><Point><coordinates>-3.77522,40.24282,0</coordinates></Point></Placemark><Placemark><name>SEMA BBS ES Av. America 47 - Parla @ (Madrid) - turuz</name><Point><coordinates>-3.76829,40.22688,0</coordinates></Point></Placemark><Placemark><name>SEMA BBS ES Av. Juan Carlos l 23 - Parla @ (Madrid) - turuz</name><Point><coordinates>-3.76825,40.22661,0</coordinates></Point></Placemark><Placemark><name>SEMA BBS ES Calle Real - Parla @ (Madrid) - turuz</name><Point><coordinates>-3.76761,40.24489,0</coordinates></Point></Placemark><Placemark><name>SEMA BBS ES Av. de America - Parla (Madrid) - turuz</name><Point><coordinates>-3.7598,40.23347,0</coordinates></Point></Placemark><Placemark><name>SEMA BBS ES Av. los Planetas - Parla (Madrid) - turuz</name><Point><coordinates>-3.75706,40.2222,0</coordinates></Point></Placemark><Placemark><name>SEMA BBS ES Av. Primero de Mayo  - Alcorcón (Madrid) - anchonyo</name><Point><coordinates>-3.83745,40.32808,0</coordinates></Point></Placemark><Placemark><name>SEMA BBS ES Av. Primero de Mayo  - Alcorcón (Madrid) - anchonyo</name><Point><coordinates>-3.83436,40.32955,0</coordinates></Point></Placemark><Placemark><name>SEMA BBS ES Av. de Móstoles 4 - Alcorcón (Madrid) - anchonyo</name><Point><coordinates>-3.8315,40.35016,0</coordinates></Point></Placemark><Placemark><name>SEMA BBS ES Avenida de Móstoles 3 - Alcorcón (Madrid) - anchonyo</name><Point><coordinates>-3.83106,40.35027,0</coordinates></Point></Placemark><Placemark><name>SEMA BBS ES Av. Mostoles 2 - Alcorcon (Madrid) - anchonyo</name><Point><coordinates>-3.82578,40.35295,0</coordinates></Point></Placemark><Placemark><name>SEMA BBS ES Av. de Leganés 2 -Alcorcón (Madrid) - anchonyo</name><Point><coordinates>-3.82517,40.35183,0</coordinates></Point></Placemark><Placemark><name>SEMA BBS ES Av. de Leganés 5 - Alcorcón (Madrid) - anchonyo</name><Point><coordinates>-3.82493,40.35197,0</coordinates></Point></Placemark><Placemark><name>SEMA BBS ES Av. de Lisboa 5 - Alcorcón (Madrid) - anchonyo</name><Point><coordinates>-3.81496,40.35626,0</coordinates></Point></Placemark><Placemark><name>SEMA BBS ES Av. Libertad 15 - Alcorcón (Madrid) - wyxchari</name><Point><coordinates>-3.8101,40.34737,0</coordinates></Point></Placemark><Placemark><name>SEMA BBS ES Av. Libertad 16 - Alcorcón (Madrid) - wyxchari</name><Point><coordinates>-3.80996,40.34716,0</coordinates></Point></Placemark><Placemark><name>SEMA BBS ES Av. de los Castillos S/N- Alcorcón (Madrid) - anchonyo</name><Point><coordinates>-3.80916,40.35641,0</coordinates></Point></Placemark><Placemark><name>SEMA BBS ES Camino del Barrial 49 - Madrid (Madrid) - Ache</name><Point><coordinates>-3.79326,40.46213,0</coordinates></Point></Placemark><Placemark><name>SEMA BBS ES Calle del Arroyo de Pozuelo 99 - Madrid (Madrid) - Todopoi</name><Point><coordinates>-3.7826,40.45235,0</coordinates></Point></Placemark><Placemark><name>SEMA BBS ES Ctra. de Carabanchel 50 - Madrid (Madrid) - Todopoi</name><Point><coordinates>-3.77435,40.39676,0</coordinates></Point></Placemark><Placemark><name>SEMA BBS ES Av. de la Peseta 6 - Madrid (Madrid) - Ache</name><Point><coordinates>-3.76577,40.36962,0</coordinates></Point></Placemark><Placemark><name>SEMA BBS ES Av. de los Poblados 66 - Madrid (Madrid) - FerScrich</name><Point><coordinates>-3.75968,40.38411,0</coordinates></Point></Placemark><Placemark><name>SEMA BBS ES Av. de Manuel Azaña 13 - Getafe @ (Madrid) - Ache</name><Point><coordinates>-3.75334,40.30022,0</coordinates></Point></Placemark><Placemark><name>SEMA BBS ES Av. de Manuel Azaña 14 - Getafe @ (Madrid) - Ache</name><Point><coordinates>-3.75333,40.30001,0</coordinates></Point></Placemark><Placemark><name>SEMA BBS ES Av. Peseta 91 - Madrid (Madrid) - angeldeandres</name><Point><coordinates>-3.74989,40.36258,0</coordinates></Point></Placemark><Placemark><name>SEMA BBS ES Av. de la Peseta 94 - Madrid (Madrid) - angeldeandres</name><Point><coordinates>-3.74985,40.36217,0</coordinates></Point></Placemark><Placemark><name>SEMA BBS ES Av. de la Peseta 105 - Madrid (Madrid) - angeldeandres</name><Point><coordinates>-3.74587,40.36307,0</coordinates></Point></Placemark><Placemark><name>SEMA BBS ES Av. Peseta 107 - Madrid (Madrid) - angeldeandres</name><Point><coordinates>-3.74574,40.36349,0</coordinates></Point></Placemark><Placemark><name>SEMA BBS ES Via Lusitana - Madrid (Madrid) - Todopoi</name><Point><coordinates>-3.7412,40.36714,0</coordinates></Point></Placemark><Placemark><name>SEMA BBS ES Av. de los Poblados 106 - Madrid (Madrid) - jenito</name><Point><coordinates>-3.73563,40.37398,0</coordinates></Point></Placemark><Placemark><name>SEMA BBS ES Via Lusitana 3 - Madrid (Madrid) - Ache</name><Point><coordinates>-3.71811,40.38477,0</coordinates></Point></Placemark><Placemark><name>SEMA BBS ES Calle del Gral. Ricardos 7 - Madrid (Madrid) - Ache</name><Point><coordinates>-3.71701,40.39701,0</coordinates></Point></Placemark><Placemark><name>SEMA BBS ES Calle de Antonio López 3 - Madrid (Madrid) - Ache</name><Point><coordinates>-3.71491,40.39749,0</coordinates></Point></Placemark><Placemark><name>SEMA BBS ES Av. del Ventisquero de la Condesa 42 - Madrid (Madrid) - Todopoi</name><Point><coordinates>-3.71749,40.49425,0</coordinates></Point></Placemark><Placemark><name>SEMA BBS ES Av.del Cardenal Herrera Oria 204 - Madrid (Madrid) - Todopoi</name><Point><coordinates>-3.71406,40.48329,0</coordinates></Point></Placemark><Placemark><name>SEMA BBS ES M-30 PK-28.8 D (Madrid) - Todopoi</name><Point><coordinates>-3.71248,40.48053,0</coordinates></Point></Placemark><Placemark><name>SEMA BBS ES Calle de Sinesio Delgado 64 - Madrid (Madrid) - Todopoi</name><Point><coordinates>-3.71147,40.47128,0</coordinates></Point></Placemark><Placemark><name>SEMA BBS ES Calle de Alberto Aguilera 23 - Madrid (Madrid) - Ache</name><Point><coordinates>-3.71096,40.42996,0</coordinates></Point></Placemark><Placemark><name>SEMA BBS ES Av. de Filipinas 18 - Madrid (Madrid) - Todopoi</name><Point><coordinates>-3.71037,40.43998,0</coordinates></Point></Placemark><Placemark><name>SEMA BBS ES Calle de Cea Bermúdez 13 - Madrid (Madrid) - ipoque</name><Point><coordinates>-3.70845,40.43882,0</coordinates></Point></Placemark><Placemark><name>SEMA BBS ES AS-379 PK-27.5 - Llanes A (Asturias) - Ache</name><Point><coordinates>-4.7658,43.42303,0</coordinates></Point></Placemark><Placemark><name>SEMA BBS ES Av. de Zamora - Valladolid (Valladolid) - 1967</name><Point><coordinates>-4.75378,41.62346,0</coordinates></Point></Placemark><Placemark><name>SEMA BBS ES Av. de Salamanca 28-30 - Valladolid (Valladolid) - unilhexio</name><Point><coordinates>-4.73928,41.65035,0</coordinates></Point></Placemark><Placemark><name>SEMA BBS ES VA-900 PK-1.1 - Valladolid D (Valladolid) - Ache</name><Point><coordinates>-4.73648,41.67014,0</coordinates></Point></Placemark><Placemark><name>SEMA BBS ES Paseo de Zorrilla - Valladolid @ (Valladolid) - Ache</name><Point><coordinates>-4.73428,41.64477,0</coordinates></Point></Placemark><Placemark><name>SEMA BBS ES Plaza de la Rinconada 4 - Valladolid (Valladolid) - caceres222</name><Point><coordinates>-4.73027,41.65351,0</coordinates></Point></Placemark><Placemark><name>SEMA BBS ES Calle Don Sancho 11 - Valladolid (Valladolid) - Ache</name><Point><coordinates>-4.71848,41.64933,0</coordinates></Point></Placemark><Placemark><name>SEMA BBS ES Paseo Juan Carlos I - Valladolid (Valladolid) - Todopoi</name><Point><coordinates>-4.71841,41.6362,0</coordinates></Point></Placemark><Placemark><name>SEMA BBS ES Av. de Soria - Valladolid (Valladolid) - Ache</name><Point><coordinates>-4.71201,41.64193,0</coordinates></Point></Placemark><Placemark><name>SEMA BBS ES Av. Castilla 55 - Palencia @ (Palencia) - Gotego</name><Point><coordinates>-4.53639,42.00861,0</coordinates></Point></Placemark><Placemark><name>SEMA BBS ES Calle Fausto Herrero 31 - Íscar (Valladolid) - caceres222</name><Point><coordinates>-4.523,41.36555,0</coordinates></Point></Placemark><Placemark><name>SEMA BBS ES Av. Brasilia - Palencia (Palencia) - Ache</name><Point><coordinates>-4.51969,42.01156,0</coordinates></Point></Placemark><Placemark><name>SEMA BBS ES Calle Carchena 26 - Cuéllar (Segovia) - Ache</name><Point><coordinates>-4.31202,41.40124,0</coordinates></Point></Placemark><Placemark><name>SEMA BBS ES Av. Puente Carlos III 38 - Reinosa (Cantabria) - Ache</name><Point><coordinates>-4.13953,42.99734,0</coordinates></Point></Placemark><Placemark><name>SEMA BBS ES CA-133 PK-0.6 - Puente San Miguel D (Cantabria) - Ache</name><Point><coordinates>-4.08814,43.364,0</coordinates></Point></Placemark><Placemark><name>SEMA BBS ES CA-142 PK-12.4 - Sta. María de Cayon D (Cantabria) - combo</name><Point><coordinates>-3.8536,43.30877,0</coordinates></Point></Placemark><Placemark><name>SEMA BBS ES N-323a PK-137.6 - Alhendín D (Granada) - wyxchari</name><Point><coordinates>-3.6421,37.10688,0</coordinates></Point></Placemark><Placemark><name>SEMA BBS ES Camino de Ronda 119 - Granada (Granada) - wyxchari</name><Point><coordinates>-3.61077,37.17801,0</coordinates></Point></Placemark><Placemark><name>SEMA BBS ES Camino de Ronda 65 - Granada (Granada) - Ache</name><Point><coordinates>-3.60589,37.16997,0</coordinates></Point></Placemark><Placemark><name>SEMA BBS ES N-322 PK-154.2 - Torreperojil A (Jaén) - Ache</name><Point><coordinates>-3.29413,38.03617,0</coordinates></Point></Placemark><Placemark><name>SEMA BBS ES N-322 PK-154.2 - Torreperojil D (Jaén) - Ache</name><Point><coordinates>-3.29403,38.03656,0</coordinates></Point></Placemark><Placemark><name>SEMA BBS ES N-322 PK-179.1 - Villacarrillo A @ (Jaén) - Ache</name><Point><coordinates>-3.08298,38.11792,0</coordinates></Point></Placemark><Placemark><name>SEMA BBS ES N-322 PK-179.1 - Villacarrillo D @ (Jaén) - Ache</name><Point><coordinates>-3.08288,38.11817,0</coordinates></Point></Placemark><Placemark><name>SEMA BBS ES N-322 PK-179.4 - Villacarrillo D @ (Jaén) - Ache</name><Point><coordinates>-3.08029,38.11905,0</coordinates></Point></Placemark><Placemark><name>SEMA BBS ES Alvaro de Bazán 2 - Melilla (Melilla) - wyxchari</name><Point><coordinates>-2.94157,35.28617,0</coordinates></Point></Placemark><Placemark><name>SEMA BBS ES CM-4004 PK-56.6 - Yepes D (Toledo) - wyxchari</name><Point><coordinates>-3.62438,39.90283,0</coordinates></Point></Placemark><Placemark><name>SEMA BBS ES CM-4004 PK-56.8 - Yepes A (Toledo) - wyxchari</name><Point><coordinates>-3.6225,39.90307,0</coordinates></Point></Placemark><Placemark><name>SEMA BBS ES Av. de Córdoba 3A - Madrid @ (Madrid) - Todopoi</name><Point><coordinates>-3.69897,40.38749,0</coordinates></Point></Placemark><Placemark><name>SEMA BBS ES Av. Andalucia - Madrid (Madrid) - jenito</name><Point><coordinates>-3.69328,40.36064,0</coordinates></Point></Placemark><Placemark><name>SEMA BBS ES Av. de Andalucía 64 - Madrid (Madrid) - Todopoi</name><Point><coordinates>-3.69299,40.34157,0</coordinates></Point></Placemark><Placemark><name>SEMA BBS ES Av. Andalucia - Madrid (Madrid) - Todopoi</name><Point><coordinates>-3.69288,40.35091,0</coordinates></Point></Placemark><Placemark><name>SEMA BBS ES Av. de la Ciudad de Barcelona 25 - Madrid (Madrid) - Ache</name><Point><coordinates>-3.68053,40.40428,0</coordinates></Point></Placemark><Placemark><name>SEMA BBS ES Av. de Menendez Pelayo 63 - Madrid (Madrid) - Todopoi</name><Point><coordinates>-3.67755,40.41449,0</coordinates></Point></Placemark><Placemark><name>SEMA BBS ES Av. del Mediterraneo 30 - Madrid (Madrid) - Todopoi</name><Point><coordinates>-3.6729,40.40687,0</coordinates></Point></Placemark><Placemark><name>SEMA BBS ES Calle de ODonnell 65 - Madrid (Madrid) - Todopoi</name><Point><coordinates>-3.6684,40.42115,0</coordinates></Point></Placemark><Placemark><name>SEMA BBS ES Calle del Camino de los Vinateros 47 - Madrid (Madrid) - Todopoi</name><Point><coordinates>-3.65493,40.41084,0</coordinates></Point></Placemark><Placemark><name>SEMA BBS ES Calle de la Fuente Carrantona 294 - Madrid (Madrid) - Todopoi</name><Point><coordinates>-3.63621,40.40059,0</coordinates></Point></Placemark><Placemark><name>SEMA BBS ES Av. de la Institución Libre de Enseñanza 121 - Madrid (Madrid) - Todopoi</name><Point><coordinates>-3.62528,40.42059,0</coordinates></Point></Placemark><Placemark><name>SEMA BBS ES Av. de Monforte de Lemos 26 - Madrid (Madrid) - Ache</name><Point><coordinates>-3.70252,40.47978,0</coordinates></Point></Placemark><Placemark><name>SEMA BBS ES Av.del Cardenal Herrera Oria 85 - Madrid (Madrid) - Todopoi</name><Point><coordinates>-3.70073,40.4892,0</coordinates></Point></Placemark><Placemark><name>SEMA BBS ES Calle de José Abascal 15 - Madrid (Madrid) - Ache</name><Point><coordinates>-3.70058,40.4385,0</coordinates></Point></Placemark><Placemark><name>SEMA BBS ES Paseo de la Castellana 105 - Madrid (Madrid) - Todopoi</name><Point><coordinates>-3.69066,40.45445,0</coordinates></Point></Placemark><Placemark><name>SEMA BBS ES Paseo de la Castellana 167 - Madrid (Madrid) - Todopoi</name><Point><coordinates>-3.68992,40.46206,0</coordinates></Point></Placemark><Placemark><name>SEMA BBS ES Calle de Joaquín Costa 28 - Madrid (Madrid) - Ache</name><Point><coordinates>-3.683,40.44255,0</coordinates></Point></Placemark><Placemark><name>SEMA BBS ES C/ de Joaquín Costa 36 - Madrid (Madrid) - Forocoches</name><Point><coordinates>-3.68102,40.44071,0</coordinates></Point></Placemark><Placemark><name>SEMA BBS ES C/ de Francisco Silvela 99 - Madrid (Madrid) - Forocoches</name><Point><coordinates>-3.67949,40.43929,0</coordinates></Point></Placemark><Placemark><name>SEMA BBS ES Calle de Francisco Silvela 62 - Madrid (Madrid) - Todopoi</name><Point><coordinates>-3.67506,40.43542,0</coordinates></Point></Placemark><Placemark><name>SEMA BBS ES Av. de América 31 - Madrid (Madrid) - Ache</name><Point><coordinates>-3.67315,40.43927,0</coordinates></Point></Placemark><Placemark><name>SEMA BBS ES Av. de Francisco Pi y Margall 77 - Madrid (Madrid) - jenito</name><Point><coordinates>-3.65978,40.49112,0</coordinates></Point></Placemark><Placemark><name>SEMA BBS ES Av. del Marqués de Corbera 8 - Madrid (Madrid) - Ache</name><Point><coordinates>-3.65616,40.42281,0</coordinates></Point></Placemark><Placemark><name>SEMA BBS ES Calle Marques de la Valdavia 88 - Alcobendas (Madrid) - Ache</name><Point><coordinates>-3.64287,40.54473,0</coordinates></Point></Placemark><Placemark><name>SEMA BBS ES Calle Ascao 31B - Madrid (Madrid) - Ache</name><Point><coordinates>-3.64036,40.43056,0</coordinates></Point></Placemark><Placemark><name>SEMA BBS ES Av. los Almendros - Rivas-Vaciamadrid (Madrid) - angel59</name><Point><coordinates>-3.54759,40.35673,0</coordinates></Point></Placemark><Placemark><name>SEMA BBS ES Av. los Almendros 2 - Rivas-Vaciamadrid (Madrid) - Ache</name><Point><coordinates>-3.54694,40.3573,0</coordinates></Point></Placemark><Placemark><name>SEMA BBS ES Calle de Alcalá 518 - Madrid (Madrid) - Ache</name><Point><coordinates>-3.62389,40.44162,0</coordinates></Point></Placemark><Placemark><name>SEMA BBS ES Av. de Barajas 343 - Alcobendas (Madrid) - erbauhaus</name><Point><coordinates>-3.62361,40.53648,0</coordinates></Point></Placemark><Placemark><name>SEMA BBS ES Av. de Barajas 527 - Alcobendas (Madrid) - yezosa</name><Point><coordinates>-3.62327,40.53673,0</coordinates></Point></Placemark><Placemark><name>SEMA BBS ES A-1 PK-18.5 - San Sebastián de los Reyes D (Madrid) - Ache</name><Point><coordinates>-3.60852,40.54367,0</coordinates></Point></Placemark><Placemark><name>SEMA BBS ES Av. de Logroño 44 - Madrid (Madrid) - Todopoi</name><Point><coordinates>-3.5934,40.46027,0</coordinates></Point></Placemark><Placemark><name>SEMA BBS ES Av. Constitucion - Coslada @ (Madrid) - Ache</name><Point><coordinates>-3.55705,40.42728,0</coordinates></Point></Placemark><Placemark><name>SEMA BBS ES Av. de la Constitución 1A - Coslada @ (Madrid) - guaje47</name><Point><coordinates>-3.55593,40.42727,0</coordinates></Point></Placemark><Placemark><name>SEMA BBS ES Calle Torno 1 - Rivas-Vaciamadrid (Madrid) - angel59</name><Point><coordinates>-3.5421,40.35027,0</coordinates></Point></Placemark><Placemark><name>SEMA BBS ES Calle José Saramago - Rivas-Vaciamadrid (Madrid) - angel59</name><Point><coordinates>-3.53999,40.35167,0</coordinates></Point></Placemark><Placemark><name>SEMA BBS ES M-114 PK-2 - Ajalvir D (Madrid) - wing</name><Point><coordinates>-3.48509,40.53674,0</coordinates></Point></Placemark><Placemark><name>SEMA BBS ES M-123 PK-0.2 A - Algete (Madrid) - wyxchari</name><Point><coordinates>-3.50479,40.59644,0</coordinates></Point></Placemark><Placemark><name>SEMA BBS ES M-123 PK-0.3 D - Algete (Madrid) - wyxchari</name><Point><coordinates>-3.50425,40.59657,0</coordinates></Point></Placemark><Placemark><name>SEMA BBS ES Av. Constitucion 1 - Algete (Madrid) - Todopoi</name><Point><coordinates>-3.49775,40.5962,0</coordinates></Point></Placemark><Placemark><name>SEMA BBS ES Calle San Roque - Algete (Madrid) - Ache</name><Point><coordinates>-3.49755,40.5964,0</coordinates></Point></Placemark><Placemark><name>SEMA BBS ES Vía Complutense 35 - Alcalá de Henares (Madrid) - caceres222</name><Point><coordinates>-3.36468,40.48502,0</coordinates></Point></Placemark><Placemark><name>SEMA BBS ES Av. Francisco Vives 20 - Azuqueca de Henares (Guadalajara) - Ache</name><Point><coordinates>-3.2679,40.56519,0</coordinates></Point></Placemark><Placemark><name>SEMA BBS ES Cañada Real 22 - Alovera (Guadalajara) - wyxchari</name><Point><coordinates>-3.24827,40.59676,0</coordinates></Point></Placemark><Placemark><name>SEMA BBS ES Calle de Francisco Aritio 128 - Guadalajara (Guadalajara) - Ache</name><Point><coordinates>-3.19543,40.62964,0</coordinates></Point></Placemark><Placemark><name>SEMA BBS ES Calle de Francisco Aritio 11d - Guadalajara (Guadalajara) - jtl_90</name><Point><coordinates>-3.17855,40.6439,0</coordinates></Point></Placemark><Placemark><name>SEMA BBS ES Calle de Dos de Mayo 156 - Villarrobledo (Albacete) - Forocoches</name><Point><coordinates>-2.60329,39.27397,0</coordinates></Point></Placemark><Placemark><name>SEMA BBS ES Calle de San Clemente 89 - Villarrobledo (Albacete) - Forocoches</name><Point><coordinates>-2.59893,39.2698,0</coordinates></Point></Placemark><Placemark><name>SEMA BBS ES Av. del Cid Campeador 78 - Burgos (Burgos) - guaje47</name><Point><coordinates>-3.69608,42.34953,0</coordinates></Point></Placemark><Placemark><name>SEMA BBS ES Av. Cantabria 32 - Burgos (Burgos) - FerScrich</name><Point><coordinates>-3.68879,42.34964,0</coordinates></Point></Placemark><Placemark><name>SEMA BBS ES Av. Cantabria 21 - Burgos (Burgos) - FerScrich</name><Point><coordinates>-3.68778,42.34693,0</coordinates></Point></Placemark><Placemark><name>SEMA BBS ES Av. del Arlanzón 41 - Burgos (Burgos) - FerScrich</name><Point><coordinates>-3.68635,42.34294,0</coordinates></Point></Placemark><Placemark><name>SEMA BBS ES Calle de Vitoria 120 - Burgos (Burgos) - FerScrich</name><Point><coordinates>-3.68101,42.34663,0</coordinates></Point></Placemark><Placemark><name>SEMA BBS ES Calle de Vitoria 3 - Burgos (Burgos) - FerScrich</name><Point><coordinates>-3.67686,42.34912,0</coordinates></Point></Placemark><Placemark><name>SEMA BBS ES N-634 PK-131.5 - Muskiz A/D (Vizcaya) - Ache</name><Point><coordinates>-3.11388,43.32261,0</coordinates></Point></Placemark><Placemark><name>SEMA BBS ES N-122 PK-161.3 - Golmayo D @ (Soria) - antxonz</name><Point><coordinates>-2.52389,41.76507,0</coordinates></Point></Placemark><Placemark><name>SEMA BBS ES N-122 PK-161.1 - Golmayo A @ (Soria) - antxonz</name><Point><coordinates>-2.52194,41.76617,0</coordinates></Point></Placemark><Placemark><name>SEMA BBS ES Plaza Tirso Molina 11 - Soria @ (Soria) - Ache</name><Point><coordinates>-2.46239,41.7662,0</coordinates></Point></Placemark><Placemark><name>SEMA BBS ES Calle Moncayo 1 - Soria @ (Soria) - Ache</name><Point><coordinates>-2.46189,41.76574,0</coordinates></Point></Placemark><Placemark><name>SEMA BBS ES Zankoeta Kalea 9 - Bilbao (Vizcaya) - Ache</name><Point><coordinates>-2.94627,43.25812,0</coordinates></Point></Placemark><Placemark><name>SEMA BBS ES Urkixo Zumarkalea 93 - Bilbao (Vizcaya) - Ache</name><Point><coordinates>-2.94591,43.26218,0</coordinates></Point></Placemark><Placemark><name>SEMA BBS ES Iparraguirre Kalea 29 - Bilbao (Vizcaya) - Ache</name><Point><coordinates>-2.9365,43.26304,0</coordinates></Point></Placemark><Placemark><name>SEMA BBS ES Calle Gral. Concha 27 - Bilbao (Vizcaya) - Ache</name><Point><coordinates>-2.93565,43.25755,0</coordinates></Point></Placemark><Placemark><name>SEMA BBS ES Mazarredo Zumarkalea 1 - Bilbao @ (Vizcaya) - Ache</name><Point><coordinates>-2.92947,43.26205,0</coordinates></Point></Placemark><Placemark><name>SEMA BBS ES Mazarredo Zumarkalea 6A - Bilbao @ (Vizcaya) - Ache</name><Point><coordinates>-2.92909,43.26298,0</coordinates></Point></Placemark><Placemark><name>SEMA BBS ES BI-2235 PK-44.7- Busturia A (Vizcaya) - Ache</name><Point><coordinates>-2.69821,43.38264,0</coordinates></Point></Placemark><Placemark><name>SEMA BBS ES Calle Mexico 2 - Vitoria (Álava) - Ache</name><Point><coordinates>-2.68775,42.85287,0</coordinates></Point></Placemark><Placemark><name>SEMA BBS ES Calle Adriano VI 15 - Vitoria (Álava) - Ache</name><Point><coordinates>-2.68221,42.84732,0</coordinates></Point></Placemark><Placemark><name>SEMA BBS ES Av.Gasteiz 54 - Vitoria (Álava) - Ache</name><Point><coordinates>-2.68099,42.85041,0</coordinates></Point></Placemark><Placemark><name>SEMA BBS ES Calle Ramiro de Maeztu 22 -Vitoria (Álava) - Ache</name><Point><coordinates>-2.67808,42.84937,0</coordinates></Point></Placemark><Placemark><name>SEMA BBS ES Plaza del Renacimiento 13 - Vitoria (Álava) - autoseiscientos</name><Point><coordinates>-2.66652,42.84204,0</coordinates></Point></Placemark><Placemark><name>SEMA BBS ES Portal Gamarrako Atea 21 - Vitoria (Álava) - Ache</name><Point><coordinates>-2.65941,42.8695,0</coordinates></Point></Placemark><Placemark><name>SEMA BBS ES N-320 PK-148.2 - Chillaron D (Cuenca) - Kaza</name><Point><coordinates>-2.22397,40.10858,0</coordinates></Point></Placemark><Placemark><name>SEMA BBS ES N-320 PK-147.4 - Chillaron A (Cuenca) - Kaza</name><Point><coordinates>-2.21847,40.10056,0</coordinates></Point></Placemark><Placemark><name>SEMA BBS ES N-3 PK-200.2 - Motilla del Palancar A (Cuenca) - wyxchari</name><Point><coordinates>-1.90596,39.56034,0</coordinates></Point></Placemark><Placemark><name>SEMA BBS ES C-3314 PK-14.8 - Calasparra D (Murcia) - wyxchari</name><Point><coordinates>-1.72809,38.21106,0</coordinates></Point></Placemark><Placemark><name>SEMA BBS ES N-634 PK-43.7 - Deba D (Guipúzcoa) - wyxchari</name><Point><coordinates>-2.35208,43.29616,0</coordinates></Point></Placemark><Placemark><name>SEMA BBS ES N-634 PK-22.6 - Getaria A (Guipúzcoa) - Forocoches</name><Point><coordinates>-2.20347,43.30215,0</coordinates></Point></Placemark><Placemark><name>SEMA BBS ES Calle Filipinas 24 - Ordizia (Guipúzcoa) - caceres222</name><Point><coordinates>-2.17387,43.05752,0</coordinates></Point></Placemark><Placemark><name>SEMA BBS ES De Zumalakarregi Hiribidea 3 - Donostia (Guipúzcoa) - wyxchari</name><Point><coordinates>-2.0013,43.31511,0</coordinates></Point></Placemark><Placemark><name>SEMA BBS ES Alcalde J. Elosegi Hiribidea 86 - Donostia (Guipúzcoa) - Ache</name><Point><coordinates>-1.94843,43.32125,0</coordinates></Point></Placemark><Placemark><name>SEMA BBS ES Plaza de Santiago - Pasai Donibane (Guipúzcoa) - caceres222</name><Point><coordinates>-1.9198,43.32712,0</coordinates></Point></Placemark><Placemark><name>SEMA BBS ES Donibane Kalea 24 - Pasai Donibane (Guipúzcoa) - caceres222</name><Point><coordinates>-1.91628,43.32416,0</coordinates></Point></Placemark><Placemark><name>SEMA BBS ES Av. de Pío XII 43 - Pamplona (Navarra) - Ache</name><Point><coordinates>-1.66103,42.8066,0</coordinates></Point></Placemark><Placemark><name>SEMA BBS ES Av. del Ejercito - Pamplona (Navarra) - Ache</name><Point><coordinates>-1.65215,42.81445,0</coordinates></Point></Placemark><Placemark><name>SEMA BBS ES Av. del Reino de Navarra 2 - Sarriguren @ (Navarra) - Ache</name><Point><coordinates>-1.60188,42.81159,0</coordinates></Point></Placemark><Placemark><name>SEMA BBS ES Av. del Reino de Navarra 2 - Sarriguren @ (Navarra) - Ache</name><Point><coordinates>-1.60155,42.81183,0</coordinates></Point></Placemark><Placemark><name>SEMA BBS ES C/ Zubiarte 11 - Huarte (Navarra) - Forocoches</name><Point><coordinates>-1.59215,42.83154,0</coordinates></Point></Placemark><Placemark><name>SEMA BBS ES Av. del Reino de Navarra 24 - Sarriguren @ (Navarra) - Ache</name><Point><coordinates>-1.5901,42.80885,0</coordinates></Point></Placemark><Placemark><name>SEMA BBS ES Av. del Reino de Navarra 27 - Sarriguren @ (Navarra) - Ache</name><Point><coordinates>-1.58981,42.80909,0</coordinates></Point></Placemark><Placemark><name>SEMA BBS ES Av. de Egüés 1 - Gorráiz (Navarra) - Ache</name><Point><coordinates>-1.58177,42.8223,0</coordinates></Point></Placemark><Placemark><name>SEMA BBS ES Av. de Egüés 4 - Gorráiz (Navarra) - Ache</name><Point><coordinates>-1.58175,42.822,0</coordinates></Point></Placemark><Placemark><name>SEMA BBS ES CV-909 PK-3.6 - San Isidro D (Alicante) - funcy2</name><Point><coordinates>-0.84096,38.17088,0</coordinates></Point></Placemark><Placemark><name>SEMA BBS ES Ctra de Agost 34 - San Vicente del Raspeig (Alicante) - Ache</name><Point><coordinates>-0.53139,38.40014,0</coordinates></Point></Placemark><Placemark><name>SEMA BBS ES Plaça Pintor Guiteras 2 - Xàtiva (Valencia) - Todopoi</name><Point><coordinates>-0.52064,38.99178,0</coordinates></Point></Placemark><Placemark><name>SEMA BBS ES Av. del Cid 72 - Valencia (Valencia) - Ache</name><Point><coordinates>-0.39906,39.46881,0</coordinates></Point></Placemark><Placemark><name>SEMA BBS ES Av.de Pérez Galdós 80 - València (Valencia) - Ache</name><Point><coordinates>-0.39123,39.46894,0</coordinates></Point></Placemark><Placemark><name>SEMA BBS ES Av. Joan Martorell 13 - Canet de Berenguer (Valencia) - Forocoches</name><Point><coordinates>-0.21122,39.68659,0</coordinates></Point></Placemark><Placemark><name>SEMA BBS ES Av. de la Comunidad Valenciana 26 - Benidorm (Alicante) - Ache</name><Point><coordinates>-0.12339,38.5414,0</coordinates></Point></Placemark><Placemark><name>SEMA BBS ES Carrer Cos-Gayón 9 - Lérida (Lérida) - zontak</name><Point><coordinates>0.61805,41.60769,0</coordinates></Point></Placemark><Placemark><name>SEMA BBS ES Carrer Enric Granados 23 -Lérida (Lérida) - Ache</name><Point><coordinates>0.61824,41.62143,0</coordinates></Point></Placemark><Placemark><name>SEMA BBS ES Rambla d'Aragó 17 - Lérida (Lérida) - Ache</name><Point><coordinates>0.61958,41.61323,0</coordinates></Point></Placemark><Placemark><name>SEMA BBS ES Av. Prat de la Riba 36 - Lérida (Lérida) - Ache</name><Point><coordinates>0.62255,41.62026,0</coordinates></Point></Placemark><Placemark><name>SEMA BBS ES Carrer Príncep de Viana 45 - Lérida (Lérida) - Ache</name><Point><coordinates>0.62763,41.62279,0</coordinates></Point></Placemark><Placemark><name>SEMA BBS ES Av. de les Garrigues 11 - Lérida (Lérida) - Ache</name><Point><coordinates>0.63188,41.61193,0</coordinates></Point></Placemark><Placemark><name>SEMA BBS ES N-340 PK-1199.2 - L'Arboç A (Tarragona) - Forocoches</name><Point><coordinates>1.60309,41.26491,0</coordinates></Point></Placemark><Placemark><name>SEMA BBS ES N-340 PK-1199.3 - L'Arboç D (Tarragona) - Forocoches</name><Point><coordinates>1.6032,41.26515,0</coordinates></Point></Placemark><Placemark><name>SEMA BBS ES Carrer Sant Ramon 45 - Cabrianes (Barcelona) - Ache</name><Point><coordinates>1.91035,41.79914,0</coordinates></Point></Placemark><Placemark><name>SEMA BBS AD Av. d'Enclar 5 - Andorra la Vella @ (Andorra) - Ache</name><Point><coordinates>1.50486,42.49835,0</coordinates></Point></Placemark><Placemark><name>SEMA BBS AD Av. de Santa Coloma 120 - Andorra la Vella @ (Andorra) - Ache</name><Point><coordinates>1.50698,42.49959,0</coordinates></Point></Placemark><Placemark><name>SEMA BBS ES Carretera Sant Climent 39 - Viladecans (Barcelona) - Mazinguer</name><Point><coordinates>2.01557,41.32249,0</coordinates></Point></Placemark><Placemark><name>SEMA BBS ES Av. del Molí 2 - Viladecans (Barcelona) - Mazinguer</name><Point><coordinates>2.01574,41.32228,0</coordinates></Point></Placemark><Placemark><name>SEMA BBS ES C-245 PK-6.9 - Viladecans A (Barcelona) - wyxchari</name><Point><coordinates>2.01658,41.31144,0</coordinates></Point></Placemark><Placemark><name>SEMA BBS ES C-245 PK-7 - Viladecans D (Barcelona) - wyxchari</name><Point><coordinates>2.01682,41.31199,0</coordinates></Point></Placemark><Placemark><name>SEMA BBS ES B-204 PK-0 - Viladecans D (Barcelona) - wyxchari</name><Point><coordinates>2.02084,41.31546,0</coordinates></Point></Placemark><Placemark><name>SEMA BBS ES Av. de Jacquard 101 - Terrassa (Barcelona) - impresora</name><Point><coordinates>2.02218,41.56432,0</coordinates></Point></Placemark><Placemark><name>SEMA BBS ES C-245 PK-8 - Viladecans D (Barcelona) - Ache</name><Point><coordinates>2.02455,41.31901,0</coordinates></Point></Placemark><Placemark><name>SEMA BBS ES Ronda de Sant Ramon 100 -  Sant Boi de Llobregat (Barcelona) - Ache</name><Point><coordinates>2.02793,41.34702,0</coordinates></Point></Placemark><Placemark><name>SEMA BBS ES Av. del Vallès 520 - Terrassa (Barcelona) - Ache</name><Point><coordinates>2.03405,41.56634,0</coordinates></Point></Placemark><Placemark><name>SEMA BBS ES Av. de Vallvidrera 73 - Barcelona (Barcelona) - Todopoi</name><Point><coordinates>2.11126,41.40898,0</coordinates></Point></Placemark><Placemark><name>SEMA BBS ES Av. Diagonal - Barcelona (Barcelona) - Forocoches</name><Point><coordinates>2.12802,41.38837,0</coordinates></Point></Placemark><Placemark><name>SEMA BBS ES Av. Diagonal 269 - Barcelona @ (Barcelona) - Ache</name><Point><coordinates>2.12842,41.3887,0</coordinates></Point></Placemark><Placemark><name>SEMA BBS ES Via Augusta 257 - Barcelona (Barcelona) - wyxchari</name><Point><coordinates>2.13251,41.39767,0</coordinates></Point></Placemark><Placemark><name>SEMA BBS ES Carrer del Dr. Fleming 30 - Barcelona @ (Barcelona) - Ache</name><Point><coordinates>2.13433,41.39532,0</coordinates></Point></Placemark><Placemark><name>SEMA BBS ES Carrer de Muntaner 493 - Barcelona (Barcelona) - wyxchari</name><Point><coordinates>2.13779,41.40294,0</coordinates></Point></Placemark><Placemark><name>SEMA BBS ES Carrer de Numància 47 - Barcelona (Barcelona) - guaje47</name><Point><coordinates>2.13876,41.38348,0</coordinates></Point></Placemark><Placemark><name>SEMA BBS ES Carrer d'Entença 242 - Barcelona (Barcelona) - FerScrich</name><Point><coordinates>2.14112,41.38688,0</coordinates></Point></Placemark><Placemark><name>SEMA BBS ES Via Augusta 158 - Barcelona (Barcelona) - Kaza</name><Point><coordinates>2.1422,41.39833,0</coordinates></Point></Placemark><Placemark><name>SEMA BBS ES Av. de Josep Tarradellas 116B - Barcelona (Barcelona) - Ache</name><Point><coordinates>2.1438,41.3902,0</coordinates></Point></Placemark><Placemark><name>SEMA BBS ES Av. Sarría 43 - Barcelona (Barcelona) - Forocoches</name><Point><coordinates>2.14407,41.39042,0</coordinates></Point></Placemark><Placemark><name>SEMA BBS ES Carrer d'Aragó 30 - Barcelona (Barcelona) - pepeillo62</name><Point><coordinates>2.14967,41.38072,0</coordinates></Point></Placemark><Placemark><name>SEMA BBS ES Av. Diagonal 433 Bis - Barcelona @ (Barcelona) - Ache</name><Point><coordinates>2.15098,41.39426,0</coordinates></Point></Placemark><Placemark><name>SEMA BBS ES Muntaner 190 - Barcelona (Barcelona) - Ache</name><Point><coordinates>2.15141,41.39266,0</coordinates></Point></Placemark><Placemark><name>SEMA BBS ES Gran Via de les Corts Catalanes 419 - Barcelona (Barcelona) - Ache</name><Point><coordinates>2.15264,41.37769,0</coordinates></Point></Placemark><Placemark><name>SEMA BBS ES Carrer del Comte d'Urgell 57 - Barcelona @ (Barcelona) - Ache</name><Point><coordinates>2.1589,41.38188,0</coordinates></Point></Placemark><Placemark><name>SEMA BBS ES Carrer d'Aribau 181 - Barcelona @ (Barcelona) - guaje47</name><Point><coordinates>2.15156,41.39427,0</coordinates></Point></Placemark><Placemark><name>SEMA BBS ES Carrer de París 178 - Barcelona @ (Barcelona) - guaje47</name><Point><coordinates>2.15254,41.3931,0</coordinates></Point></Placemark><Placemark><name>SEMA BBS ES Carrer de Balmes 169 - Barcelona @ (Barcelona) - guaje47</name><Point><coordinates>2.1544,41.39557,0</coordinates></Point></Placemark><Placemark><name>SEMA BBS ES Carrer del Comte d'Urgell 134 - Barcelona @ (Barcelona) - Ache</name><Point><coordinates>2.15472,41.38503,0</coordinates></Point></Placemark><Placemark><name>SEMA BBS ES Av. de Roma 132 - Barcelona @ (Barcelona) - guaje47</name><Point><coordinates>2.15474,41.38539,0</coordinates></Point></Placemark><Placemark><name>SEMA BBS ES Av. Diagonal 486 - Barcelona @ (Barcelona) - Ache</name><Point><coordinates>2.15502,41.39549,0</coordinates></Point></Placemark><Placemark><name>SEMA BBS ES Carrer d'Aribau 123 - Barcelona (Barcelona) - Forocoches</name><Point><coordinates>2.15526,41.39145,0</coordinates></Point></Placemark><Placemark><name>SEMA BBS ES Carrer de Muntaner 87 - Barcelona (Barcelona) - Ache</name><Point><coordinates>2.15704,41.3884,0</coordinates></Point></Placemark><Placemark><name>SEMA BBS ES Carrer de Muntaner 78 - Barcelona (Barcelona) - Ache</name><Point><coordinates>2.1581,41.3876,0</coordinates></Point></Placemark><Placemark><name>SEMA BBS ES Av. Diagonal 446 - Barcelonal @ (Barcelona) - Ache</name><Point><coordinates>2.15874,41.39624,0</coordinates></Point></Placemark><Placemark><name>SEMA BBS ES Gran Via de les Corts Catalanes 540 - Barcelona @ (Barcelona) - Ache</name><Point><coordinates>2.15951,41.38283,0</coordinates></Point></Placemark><Placemark><name>SEMA BBS ES Carrer d'Aragó 207 - Barcelona (Barcelona) - DiD</name><Point><coordinates>2.15989,41.38839,0</coordinates></Point></Placemark><Placemark><name>SEMA BBS ES Av. Diagonal 385 - Barcelona @ (Barcelona) - Ache</name><Point><coordinates>2.16003,41.39678,0</coordinates></Point></Placemark><Placemark><name>SEMA BBS ES Carrer de València 238 - Barcelona @ (Barcelona) - Ache</name><Point><coordinates>2.16047,41.39054,0</coordinates></Point></Placemark><Placemark><name>SEMA BBS ES Carrer de Pau Claris 194 - Barcelona @ (Barcelona) - Ache</name><Point><coordinates>2.16104,41.39732,0</coordinates></Point></Placemark><Placemark><name>SEMA BBS ES Carrer de Mallorca 251 - Barcelona @ (Barcelona) - wyxchari</name><Point><coordinates>2.1615,41.39303,0</coordinates></Point></Placemark><Placemark><name>SEMA BBS ES Carrer del Rosselló 250 - Barcelona (Barcelona) - Forocoches</name><Point><coordinates>2.16175,41.39662,0</coordinates></Point></Placemark><Placemark><name>SEMA BBS ES Carrer de València 237 - Barcelona @ (Barcelona) - Ache</name><Point><coordinates>2.16193,41.39164,0</coordinates></Point></Placemark><Placemark><name>SEMA BBS ES Carrer d'Aragó 229 - Barcelona @ (Barcelona) - DiD</name><Point><coordinates>2.16219,41.39013,0</coordinates></Point></Placemark><Placemark><name>SEMA BBS ES Gran Via de les Corts Catalanes 588 - Barcelona (Barcelona) - Ache</name><Point><coordinates>2.16282,41.38535,0</coordinates></Point></Placemark><Placemark><name>SEMA BBS ES Carrer de Mallorca 267-269 - Barcelona @ (Barcelona) - Ache</name><Point><coordinates>2.16305,41.39417,0</coordinates></Point></Placemark><Placemark><name>SEMA BBS ES Carrer de Roger de Llúria 131 - Barcelona @ (Barcelona) - Ache</name><Point><coordinates>2.16347,41.39721,0</coordinates></Point></Placemark><Placemark><name>SEMA BBS ES Carrer d'Aragó 280 - Barcelona @ (Barcelona) - Ache</name><Point><coordinates>2.16522,41.39241,0</coordinates></Point></Placemark><Placemark><name>SEMA BBS ES Carrer de Balmes 14 - Barcelona (Barcelona) - Ache</name><Point><coordinates>2.16608,41.38673,0</coordinates></Point></Placemark><Placemark><name>SEMA BBS ES Gran Via de les Corts Catalanes 609 - Barcelona (Barcelona) - Ache</name><Point><coordinates>2.16784,41.38922,0</coordinates></Point></Placemark><Placemark><name>SEMA BBS ES Av. Diagonal 331 - Barcelona @ (Barcelona) - Ache</name><Point><coordinates>2.16957,41.39894,0</coordinates></Point></Placemark><Placemark><name>SEMA BBS ES Carrer Mallorca 333 - Barcelona @ (Barcelona) - Ache</name><Point><coordinates>2.17019,41.39957,0</coordinates></Point></Placemark><Placemark><name>SEMA BBS ES Av. Diagonal 372 - Barcelona @ (Barcelona) - Ache</name><Point><coordinates>2.17038,41.39934,0</coordinates></Point></Placemark><Placemark><name>SEMA BBS ES Ronda del Guinardó 272 - Barcelona (Barcelona) - anchonyo</name><Point><coordinates>2.15997,41.41216,0</coordinates></Point></Placemark><Placemark><name>SEMA BBS ES Ronda del Guinardó 42 - Barcelona (Barcelona) - Ache</name><Point><coordinates>2.16641,41.41193,0</coordinates></Point></Placemark><Placemark><name>SEMA BBS ES Carrer de Padilla 388 - Barcelona @ (Barcelona) - Ache</name><Point><coordinates>2.16837,41.41237,0</coordinates></Point></Placemark><Placemark><name>SEMA BBS ES Carrer de Gerona 42 - Barcelona (Barcelona) - Ache</name><Point><coordinates>2.17358,41.39296,0</coordinates></Point></Placemark><Placemark><name>SEMA BBS ES Carrer Sicilia 195 - Barcelona (Barcelona) - Forocoches</name><Point><coordinates>2.17451,41.40081,0</coordinates></Point></Placemark><Placemark><name>SEMA BBS ES Carrer d'Aragó 426 - Barcelona (Barcelona) - jose-m-m</name><Point><coordinates>2.17566,41.40027,0</coordinates></Point></Placemark><Placemark><name>SEMA BBS ES Gran Via de les Corts Catalanes 744 - Barcelona (Barcelona) - Ache</name><Point><coordinates>2.18099,41.39894,0</coordinates></Point></Placemark><Placemark><name>SEMA BBS ES Carrer del Rosselló 473 - Barcelona (Barcelona) - Ache</name><Point><coordinates>2.17525,41.40681,0</coordinates></Point></Placemark><Placemark><name>SEMA BBS ES Carrer d'Arnau d'Oms 42 - Barcelona (Barcelona) - DCASama</name><Point><coordinates>2.17736,41.43012,0</coordinates></Point></Placemark><Placemark><name>SEMA BBS ES Passeig Fabra i Puig 181 - Barcelona (Barcelona) - DCASama</name><Point><coordinates>2.17757,41.43028,0</coordinates></Point></Placemark><Placemark><name>SEMA BBS ES Carrer d'Aragó 560 - Barcelona (Barcelona) - Ache</name><Point><coordinates>2.1848,41.4071,0</coordinates></Point></Placemark><Placemark><name>SEMA BBS ES Av. Meridiana 38 - Barcelona (Barcelona) - Ache</name><Point><coordinates>2.18691,41.44385,0</coordinates></Point></Placemark><Placemark><name>SEMA BBS ES Carrer d'Aragó 613 - Barcelona (Barcelona) - Ache</name><Point><coordinates>2.18731,41.40912,0</coordinates></Point></Placemark><Placemark><name>SEMA BBS ES Av. Diagonal 209 - Barcelona @ (Barcelona) - wyxchari</name><Point><coordinates>2.19005,41.40386,0</coordinates></Point></Placemark><Placemark><name>SEMA BBS ES N-150 PK-2.5 - Mointcada y Reixac D (Barcelona) - miquelor</name><Point><coordinates>2.165,41.4809,0</coordinates></Point></Placemark><Placemark><name>SEMA BBS ES Av. de la Ribera - Montcada i Reixac (Barcelona) - Forocoches</name><Point><coordinates>2.18806,41.48768,0</coordinates></Point></Placemark><Placemark><name>SEMA BBS ES Av. de Burgos 63 - Mollet del Vallès (Barcelona) - vicenaleman</name><Point><coordinates>2.20809,41.53314,0</coordinates></Point></Placemark><Placemark><name>SEMA BBS ES Av. Badalona 16 - Mollet del Vallès (Barcelona) - caceres222</name><Point><coordinates>2.2104,41.53418,0</coordinates></Point></Placemark><Placemark><name>SEMA BBS ES Avinguda de Rivoli - Mollet del Vallès (Barcelona) - Ache</name><Point><coordinates>2.211,41.54715,0</coordinates></Point></Placemark><Placemark><name>SEMA BBS ES Av. Badalona 17 - Mollet del Vallès (Barcelona) - Ache</name><Point><coordinates>2.21198,41.53392,0</coordinates></Point></Placemark><Placemark><name>SEMA BBS ES Carrer de Can Flequer 20 - Mollet del Vallés @ (Barcelona) - Ache</name><Point><coordinates>2.21826,41.54595,0</coordinates></Point></Placemark><Placemark><name>SEMA BBS ES Carrer de Can Flequer 17 - Mollet del Vallès (Barcelona) - vicenaleman</name><Point><coordinates>2.21895,41.54577,0</coordinates></Point></Placemark><Placemark><name>SEMA BBS ES BV-5001 PK-13.3 - Sant Fost de Campsentelles D @ (Barcelona) - Ache</name><Point><coordinates>2.22608,41.52611,0</coordinates></Point></Placemark><Placemark><name>SEMA BBS ES BV-5001 PK-13.3 - Sant Fost de Campsentelles A @ (Barcelona) - Ache</name><Point><coordinates>2.22625,41.52587,0</coordinates></Point></Placemark><Placemark><name>SEMA BBS ES B-500 PK-12.4 - Sant Fost de Campsentelles D @ (Barcelona) - combo</name><Point><coordinates>2.22633,41.52723,0</coordinates></Point></Placemark><Placemark><name>SEMA BBS ES BV-5001 PK-13.4 - Martorelle A @ (Barcelona) - Todopoi</name><Point><coordinates>2.22659,41.52695,0</coordinates></Point></Placemark><Placemark><name>SEMA BBS ES B-500 PK-12 - Sant Fost de Campsentelles D @ (Barcelona) - Ache</name><Point><coordinates>2.22849,41.52506,0</coordinates></Point></Placemark><Placemark><name>SEMA BBS ES B-500 PK-12 - Sant Fost de Campsentelles A @ (Barcelona) - Todopoi</name><Point><coordinates>2.22895,41.52476,0</coordinates></Point></Placemark><Placemark><name>SEMA BBS ES BV-5006 PK-0.6 - Martorelle A @ (Barcelona) - Ache</name><Point><coordinates>2.23357,41.52716,0</coordinates></Point></Placemark><Placemark><name>SEMA BBS ES BV-5006 PK-0.6 - Martorelle D @ (Barcelona) - Ache</name><Point><coordinates>2.23402,41.52735,0</coordinates></Point></Placemark><Placemark><name>SEMA BBS ES BV-5006 PK-1.5 - Martorellas D (Barcelona) - wyxchari</name><Point><coordinates>2.24205,41.52582,0</coordinates></Point></Placemark><Placemark><name>SEMA BBS ES Carrer de Santa Teresa 6 - Caldes de Montbui (Barcelona) - Ache</name><Point><coordinates>2.16579,41.62958,0</coordinates></Point></Placemark><Placemark><name>SEMA BBS ES Carrer d'Homs 4 - Caldas de Montbui (Barcelona) - wyxchari</name><Point><coordinates>2.166,41.62989,0</coordinates></Point></Placemark><Placemark><name>SEMA BBS ES BP-1432 PK-29.4 - L' Ametlla del Valles A (Barcelona) - Ache</name><Point><coordinates>2.25738,41.66504,0</coordinates></Point></Placemark><Placemark><name>SEMA BBS ES Carrer Can Camp 1 - L'Ametlla del Vallès (Barcelona) - Ache</name><Point><coordinates>2.25916,41.66538,0</coordinates></Point></Placemark><Placemark><name>SEMA BBS ES Carrer de Sant Bartomeu 19 - Torelló (Barcelona) - Forocoches</name><Point><coordinates>2.26529,42.04669,0</coordinates></Point></Placemark><Placemark><name>SEMA BBS ES Ctra. de Mataró 85 - Montgat (Barcelona) - caceres222</name><Point><coordinates>2.27232,41.46304,0</coordinates></Point></Placemark><Placemark><name>SEMA BBS ES N-II PK-631.1 - Mongat A (Barcelona) - Ache</name><Point><coordinates>2.28476,41.46825,0</coordinates></Point></Placemark><Placemark><name>SEMA BBS ES Ronda del Cros 13 - Mataró (Barcelona) - Ache</name><Point><coordinates>2.4222,41.53539,0</coordinates></Point></Placemark><Placemark><name>SEMA BBS ES Via Europa 3 - Mataro @ (Barcelona) - Ache</name><Point><coordinates>2.43525,41.54077,0</coordinates></Point></Placemark><Placemark><name>SEMA BBS ES Ronda Gral Prim - Mataro @ (Barcelona) - Ache</name><Point><coordinates>2.43555,41.54018,0</coordinates></Point></Placemark><Placemark><name>SEMA BBS ES Plaça d'Espanya 5 - Mataró (Barcelona) - Todopoi</name><Point><coordinates>2.44139,41.54459,0</coordinates></Point></Placemark><Placemark><name>SEMA BBS ES Carrer San Antoni 28 - Mataro (Barcelona) - Ache</name><Point><coordinates>2.44723,41.53693,0</coordinates></Point></Placemark><Placemark><name>SEMA BBS ES BV-5034 PK-1.5 - Sant Vicenç de Montalt D (Barcelona) - Forocoches</name><Point><coordinates>2.51451,41.57781,0</coordinates></Point></Placemark><Placemark><name>SEMA BBS ES C-61 PK-1.5 - Arenys de Mar D @ (Barcelona) - Ache</name><Point><coordinates>2.54578,41.58596,0</coordinates></Point></Placemark><Placemark><name>SEMA BBS ES C-61 PK-1.4 - Arenys de Mar A @ (Barcelona) - Ache</name><Point><coordinates>2.54628,41.58563,0</coordinates></Point></Placemark><Placemark><name>SEMA BBS ES N-II PK-659.6 - Canet de Mar A (Barcelona) - Ache</name><Point><coordinates>2.58114,41.58666,0</coordinates></Point></Placemark><Placemark><name>SEMA BBS ES Carrer del Pont 3 - Corró d'Avall (Barcelona) - Ache</name><Point><coordinates>2.29305,41.6226,0</coordinates></Point></Placemark><Placemark><name>SEMA BBS ES Carrer del Pont 2 - Corró d'Avall (Barcelona) - Ache</name><Point><coordinates>2.29331,41.62286,0</coordinates></Point></Placemark><Placemark><name>SEMA BBS ES Ctra. de Ribes 116 - Corró d'Avall @ (Barcelona) - Ache</name><Point><coordinates>2.2954,41.6303,0</coordinates></Point></Placemark><Placemark><name>SEMA BBS ES Ctra. de Ribes 135 - Corró d'Avall @ (Barcelona) - Ache</name><Point><coordinates>2.2955,41.62982,0</coordinates></Point></Placemark><Placemark><name>SEMA BBS ES N-152a PK-32.7 - Llerona D @ (Barcelona) - Ache</name><Point><coordinates>2.29751,41.64782,0</coordinates></Point></Placemark><Placemark><name>SEMA BBS ES N-152a PK-32.5 - Llerona A @ (Barcelona) - Ache</name><Point><coordinates>2.29773,41.64609,0</coordinates></Point></Placemark><Placemark><name>SEMA BBS ES Ronda Sud - Santa Maria de Palautordera (Barcelona) - Atlanta</name><Point><coordinates>2.446,41.68943,0</coordinates></Point></Placemark><Placemark><name>SEMA BBS ES Carrer Ramon i Cajal 13 - Santa Maria de Palautordera (Barcelona) - Atlanta</name><Point><coordinates>2.44808,41.69141,0</coordinates></Point></Placemark><Placemark><name>SEMA BBS ES Carrer Ramon i Cajal 36 - Santa Maria de Palautordera (Barcelona) - Atlanta</name><Point><coordinates>2.44969,41.69234,0</coordinates></Point></Placemark><Placemark><name>SEMA BBS ES Tomàs Villanueva i Cortès. 13 - Palma de Mallorca (Baleares) - wyxchari</name><Point><coordinates>2.66181,39.58746,0</coordinates></Point></Placemark><Placemark><name>SEMA BBS ES Ctra. de Manacor 62 -  Palma @ (Baleares) - Forocoches</name><Point><coordinates>2.66534,39.57124,0</coordinates></Point></Placemark><Placemark><name>SEMA BBS ES Ctra. de Manacor 81 -  Palma @ (Baleares) - Forocoches</name><Point><coordinates>2.66592,39.5715,0</coordinates></Point></Placemark><Placemark><name>SEMA BBS ES Av. de la Constitució 22 - Ciutadella (Baleares) - Forocoches</name><Point><coordinates>3.84125,40.00244,0</coordinates></Point></Placemark><Placemark><name>SEMA BBS ES N-II PK-660.4 - Canet de Mar D (Barcelona) - Ache</name><Point><coordinates>2.58916,41.58985,0</coordinates></Point></Placemark><Placemark><name>SEMA BBS ES Av. Maresme 6 - Sant Cebrià de Vallalta (Barcelona) - wyxchari</name><Point><coordinates>2.60499,41.6171,0</coordinates></Point></Placemark><Placemark><name>SEMA BBS ES Passeig dels Països Catalans -  Salt (Gerona) - Ache</name><Point><coordinates>2.78621,41.97155,0</coordinates></Point></Placemark><Placemark><name>SEMA BBS ES Passeig dels Països Catalans -  Salt (Gerona) - Ache</name><Point><coordinates>2.78658,41.97186,0</coordinates></Point></Placemark><Placemark><name>SEMA BBS ES Carrer Barcelona 70 - Gerona (Gerona) - Ache</name><Point><coordinates>2.81662,41.97589,0</coordinates></Point></Placemark><Placemark><name>SEMA BBS ES Carrer Barcelona 61 - Gerona (Gerona) - Ache</name><Point><coordinates>2.81667,41.9754,0</coordinates></Point></Placemark><Placemark><name>SEMA BBS ES Carrer d'Emili Grahit 3 - Gerona (Gerona) - Ache</name><Point><coordinates>2.817,41.97564,0</coordinates></Point></Placemark><Placemark><name>SEMA BBS ES GI-682 PK-9.4  Lloret de Mar D (Gerona) - Sunnyside Navi</name><Point><coordinates>2.82688,41.69844,0</coordinates></Point></Placemark><Placemark><name>SEMA BBS ES GIV-6213 PK-2.1 - Fortià A/D @ (Gerona) - Forocoches</name><Point><coordinates>3.03851,42.24413,0</coordinates></Point></Placemark><Placemark><name>SEMA BBS ES GIV-6213 PK-1.9 - Fortià D @ (Gerona) - Forocoches</name><Point><coordinates>3.04087,42.24525,0</coordinates></Point></Placemark><Placemark><name>SEMA BBS ES GIV-6213 PK-1.7 - Fortià A/D @ (Gerona) - Forocoches</name><Point><coordinates>3.04298,42.24629,0</coordinates></Point></Placemark><Placemark><name>SEMA BBS ES C-66 PK-1.4 - Palafrugell D @ (Gerona) - Ache</name><Point><coordinates>3.13117,41.93786,0</coordinates></Point></Placemark><Placemark><name>SEMA BBS ES C-66 PK-1.4 - Palafrugell A @ (Gerona) - Ache</name><Point><coordinates>3.13148,41.93784,0</coordinates></Point></Placemark></Folder></kml>
