<?xml version="1.0" encoding="ISO-8859-1"?>
<kml xmlns="http://earth.google.com/kml/2.0"><Folder><Placemark><name>C100 BBS PT IC1 PK-705.9 (Portugal) - Radardroid</name><Point><coordinates>-8.36524,37.37085,0</coordinates></Point></Placemark><Placemark><name>C100 BBS PT IP2 PK-386.7 (Portugal) - Radardroid</name><Point><coordinates>-8.07334,37.71504,0</coordinates></Point></Placemark><Placemark><name>C100 BBS PT IP2 PK-381.2 (Portugal) - Olaloka</name><Point><coordinates>-8.0367,37.75464,0</coordinates></Point></Placemark><Placemark><name>C100 BBS PT IP2 PK-373 (Portugal) - Ache</name><Point><coordinates>-7.97758,37.81064,0</coordinates></Point></Placemark><Placemark><name>C100 BBS PT A16 PK-2 A (Portugal) - Ache</name><Point><coordinates>-9.40367,38.73858,0</coordinates></Point></Placemark><Placemark><name>C100 BBS PT A16 PK-5.8 A (Portugal) - Ache</name><Point><coordinates>-9.37654,38.76228,0</coordinates></Point></Placemark><Placemark><name>C100 BBS PT IC30 PK-9.7 D (Portugal) - IceE</name><Point><coordinates>-9.35901,38.7932,0</coordinates></Point></Placemark><Placemark><name>C100 BBS PT R19 PK-3.3 D (Portugal) - slpro</name><Point><coordinates>-9.33709,38.86445,0</coordinates></Point></Placemark><Placemark><name>C100 BBS PT IP6 PK-10.7 D (Portugal) - Olaloka</name><Point><coordinates>-9.25508,39.33154,0</coordinates></Point></Placemark><Placemark><name>C100 BBS PT A8 PK-13.1 D (Portugal) - slpro</name><Point><coordinates>-9.19926,38.87763,0</coordinates></Point></Placemark><Placemark><name>C100 BBS PT A1 PK-10 A @ (Portugal) - Olaloka</name><Point><coordinates>-9.07841,38.86548,0</coordinates></Point></Placemark><Placemark><name>C100 BBS PT A1 PK-11.1 A (Portugal) - Tufão</name><Point><coordinates>-9.06894,38.87139,0</coordinates></Point></Placemark><Placemark><name>C100 BBS PT IC21 PK-4 D (Portugal) - Olaloka</name><Point><coordinates>-9.03228,38.61864,0</coordinates></Point></Placemark><Placemark><name>C100 BBS PT IC21 PK-3.8 A (Portugal) - Olaloka</name><Point><coordinates>-9.03056,38.6178,0</coordinates></Point></Placemark><Placemark><name>C100 BBS PT A33 PK-22.2 D (Portugal) - Olaloka</name><Point><coordinates>-9.01922,38.60937,0</coordinates></Point></Placemark><Placemark><name>C100 BBS PT A8 PK-128.8 A (Portugal) - Olaloka</name><Point><coordinates>-8.86134,39.74049,0</coordinates></Point></Placemark><Placemark><name>C100 BBS PT N109 PK-136 (Portugal) - Radardroid</name><Point><coordinates>-8.80777,40.01333,0</coordinates></Point></Placemark><Placemark><name>C100 BBS PT A25 PK-3.5 A (Portugal) - Radardroid</name><Point><coordinates>-8.70891,40.62756,0</coordinates></Point></Placemark><Placemark><name>C100 BBS PT IC10 PK-6 D (Portugal) - Olaloka</name><Point><coordinates>-8.66731,39.1984,0</coordinates></Point></Placemark><Placemark><name>C100 BBS PT IC10 PK-7.3 D (Portugal) - Tufão</name><Point><coordinates>-8.65348,39.19263,0</coordinates></Point></Placemark><Placemark><name>C100 BBS PT A28 PK-84.6 D (Portugal) - Olaloka</name><Point><coordinates>-8.79823,41.82183,0</coordinates></Point></Placemark><Placemark><name>C100 BBS PT A28 PK-74.3 D @ (Portugal) - Olaloka</name><Point><coordinates>-8.7948,41.74199,0</coordinates></Point></Placemark><Placemark><name>C100 BBS PT A28 PK-87.5 A (Portugal) - Olaloka</name><Point><coordinates>-8.78141,41.84252,0</coordinates></Point></Placemark><Placemark><name>C100 BBS PT A28 PK-56.9 A (Portugal) - Olaloka</name><Point><coordinates>-8.7752,41.60076,0</coordinates></Point></Placemark><Placemark><name>C100 BBS PT A28 PK-55.8 A (Portugal) - Tufão</name><Point><coordinates>-8.76931,41.59264,0</coordinates></Point></Placemark><Placemark><name>C100 BBS ES CG-1.5 PK-19 (La Coruña) - caceres222</name><Point><coordinates>-8.75886,42.81483,0</coordinates></Point></Placemark><Placemark><name>C100 BBS PT A28 PK-13.9 A (Portugal) - Olaloka</name><Point><coordinates>-8.697,41.25047,0</coordinates></Point></Placemark><Placemark><name>C100 BBS PT A28 PK-11.7 (Portugal) - Radardroid</name><Point><coordinates>-8.69512,41.23116,0</coordinates></Point></Placemark><Placemark><name>C100 BBS PT A11 PK-4.8 A (Portugal) - Olaloka</name><Point><coordinates>-8.69299,41.49531,0</coordinates></Point></Placemark><Placemark><name>C100 BBS PT VRI PK-1.3 D (Portugal) - Olaloka</name><Point><coordinates>-8.65539,41.21635,0</coordinates></Point></Placemark><Placemark><name>C100 BBS ES AP-9 PK-167.7 A (Pontevedra) - Todopoi</name><Point><coordinates>-8.64261,42.15011,0</coordinates></Point></Placemark><Placemark><name>C100 BBS PT A29 PK-47.8 D @ (Portugal) - AlbertoSousa</name><Point><coordinates>-8.63096,41.0806,0</coordinates></Point></Placemark><Placemark><name>C100 BBS PT A44 PK-1.3 D (Portugal) - Radardroid</name><Point><coordinates>-8.63016,41.09228,0</coordinates></Point></Placemark><Placemark><name>C100 BBS PT N103 PK-21.2 (Portugal) - Radardroid</name><Point><coordinates>-8.62511,41.51598,0</coordinates></Point></Placemark><Placemark><name>C100 BBS PT A4 PK-4.9 A @ (Portugal) - Olaloka</name><Point><coordinates>-8.62285,41.20466,0</coordinates></Point></Placemark><Placemark><name>C100 BBS PT A29 PK-48.7 A (Portugal) - Tufão</name><Point><coordinates>-8.61975,41.08455,0</coordinates></Point></Placemark><Placemark><name>C100 BBS PT N5 PK-45 (Portugal) - Olaloka</name><Point><coordinates>-8.59619,38.47983,0</coordinates></Point></Placemark><Placemark><name>C100 BBS PT IC1 PK-610.7 (Portugal) - Olaloka</name><Point><coordinates>-8.41702,38.07955,0</coordinates></Point></Placemark><Placemark><name>C100 BBS PT A25 PK-21.9 D (Portugal) - Tufão</name><Point><coordinates>-8.54651,40.68982,0</coordinates></Point></Placemark><Placemark><name>C100 BBS PT A1 PK-258.1 A (Portugal) - mus</name><Point><coordinates>-8.54447,40.78202,0</coordinates></Point></Placemark><Placemark><name>C100 BBS PT A1 PK-181.7 D (Portugal) - Olaloka</name><Point><coordinates>-8.49621,40.13368,0</coordinates></Point></Placemark><Placemark><name>C100 BBS PT IC2 PK-195.4 A (Portugal) - Ache</name><Point><coordinates>-8.44327,40.25836,0</coordinates></Point></Placemark><Placemark><name>C100 BBS PT IC2 PK-192.6 D (Portugal) - Tufão</name><Point><coordinates>-8.43604,40.23387,0</coordinates></Point></Placemark><Placemark><name>C100 BBS PT A13 PK-122.5 D (Portugal) - Olaloka</name><Point><coordinates>-8.42116,39.51203,0</coordinates></Point></Placemark><Placemark><name>C100 BBS PT A25 PK-34.6 A (Portugal) - Olaloka</name><Point><coordinates>-8.41892,40.66454,0</coordinates></Point></Placemark><Placemark><name>C100 BBS PT A25 PK-36.4 D (Portugal) - Olaloka</name><Point><coordinates>-8.39897,40.66618,0</coordinates></Point></Placemark><Placemark><name>C100 BBS PT IC9 PK-67.5 D (Portugal) - Radardroid</name><Point><coordinates>-8.36919,39.62062,0</coordinates></Point></Placemark><Placemark><name>C100 BBS PT IP3 PK-58.9 D (Portugal) - Radardroid</name><Point><coordinates>-8.30339,40.28714,0</coordinates></Point></Placemark><Placemark><name>C100 BBS PT IP3 PK-60 A (Portugal) - Olaloka</name><Point><coordinates>-8.29295,40.27976,0</coordinates></Point></Placemark><Placemark><name>C100 BBS PT IP3PK-60.6 D (Portugal) - Olaloka</name><Point><coordinates>-8.28707,40.2777,0</coordinates></Point></Placemark><Placemark><name>C100 BBS PT A23 PK-37.7 A (Portugal) - Radardroid</name><Point><coordinates>-8.22075,39.4843,0</coordinates></Point></Placemark><Placemark><name>C100 BBS PT IP3 PK-72.8 (Portugal) - Olaloka</name><Point><coordinates>-8.20771,40.34782,0</coordinates></Point></Placemark><Placemark><name>C100 BBS PT A25 PK-58.1 D (Portugal) - Olaloka</name><Point><coordinates>-8.1777,40.68215,0</coordinates></Point></Placemark><Placemark><name>C100 BBS PT A25 PK-59.3 D (Portugal) - Tufão</name><Point><coordinates>-8.16377,40.68059,0</coordinates></Point></Placemark><Placemark><name>C100 BBS PT A25 PK-59.5 A (Portugal) - Olaloka</name><Point><coordinates>-8.16112,40.67984,0</coordinates></Point></Placemark><Placemark><name>C100 BBS PT A25 PK-60.9 D (Portugal) - Radardroid</name><Point><coordinates>-8.14656,40.68369,0</coordinates></Point></Placemark><Placemark><name>C100 BBS PT IP3 PK-79 D (Portugal) - Radardroid</name><Point><coordinates>-8.14381,40.35652,0</coordinates></Point></Placemark><Placemark><name>C100 BBS PT IC3 PK-89.6 @ (Portugal) - Olaloka</name><Point><coordinates>-8.11136,40.43385,0</coordinates></Point></Placemark><Placemark><name>C100 BBS PT IP3 PK-103.6 A (Portugal) - Olaloka</name><Point><coordinates>-8.05935,40.53564,0</coordinates></Point></Placemark><Placemark><name>C100 BBS PT IC12 PK-14.3 A/D (Portugal) - mscosta</name><Point><coordinates>-7.97478,40.45263,0</coordinates></Point></Placemark><Placemark><name>C100 BBS PT A29 PK-34.6 A (Portugal) - Olaloka</name><Point><coordinates>-8.61054,40.97387,0</coordinates></Point></Placemark><Placemark><name>C100 BBS PT A29 PK-30 D (Portugal) - Olaloka</name><Point><coordinates>-8.60221,40.93393,0</coordinates></Point></Placemark><Placemark><name>C100 BBS PT A29 PK-30.6 A (Portugal) - Radardroid</name><Point><coordinates>-8.60173,40.94021,0</coordinates></Point></Placemark><Placemark><name>C100 BBS PT A1 PK-295.8 A (Portugal) - Tufão</name><Point><coordinates>-8.59827,41.10128,0</coordinates></Point></Placemark><Placemark><name>C100 BBS PT A1 PK-295.8 D (Portugal) - Ache</name><Point><coordinates>-8.59791,41.10066,0</coordinates></Point></Placemark><Placemark><name>C100 BBS PT A1 PK-295.1 A (Portugal) - Olaloka</name><Point><coordinates>-8.59159,41.0966,0</coordinates></Point></Placemark><Placemark><name>C100 BBS PT A41 PK-59.5 A (Portugal) - Tufão</name><Point><coordinates>-8.58915,41.01158,0</coordinates></Point></Placemark><Placemark><name>C100 BBS PT A20 PK-6.4 A @ (Portugal) - Olaloka</name><Point><coordinates>-8.57348,41.12463,0</coordinates></Point></Placemark><Placemark><name>C100 BBS PT A32 PK-27.6 A (Portugal) - Tufão</name><Point><coordinates>-8.51919,41.05444,0</coordinates></Point></Placemark><Placemark><name>C100 BBS PT A41 PK-19.8 D (Portugal) - Olaloka</name><Point><coordinates>-8.49428,41.24043,0</coordinates></Point></Placemark><Placemark><name>C100 BBS PT A4 PK-17.4 D (Portugal) - Olaloka</name><Point><coordinates>-8.4825,41.19259,0</coordinates></Point></Placemark><Placemark><name>C100 BBS PT A4 PK-18.2 A (Portugal) - Olaloka</name><Point><coordinates>-8.47593,41.18797,0</coordinates></Point></Placemark><Placemark><name>C100 BBS PT A32 PK-15.4 A (Portugal) - Olaloka</name><Point><coordinates>-8.46684,40.9691,0</coordinates></Point></Placemark><Placemark><name>C100 BBS PT N101 PK-87.4 A/D (Portugal) - Olaloka</name><Point><coordinates>-8.43781,41.58974,0</coordinates></Point></Placemark><Placemark><name>C100 BBS PT A42 PK-6.5 D (Portugal) - Olaloka</name><Point><coordinates>-8.39906,41.25717,0</coordinates></Point></Placemark><Placemark><name>C100 BBS PT A42 PK-15.3 A (Portugal) - Ache</name><Point><coordinates>-8.32046,41.28312,0</coordinates></Point></Placemark><Placemark><name>C100 BBS PT A4 PK-37.2 A (Portugal) - slpro</name><Point><coordinates>-8.28766,41.21167,0</coordinates></Point></Placemark><Placemark><name>V100 BBS ES AG-59 PK-5.4 A (La Coruña) - Radardroid</name><Point><coordinates>-8.54254,42.79172,0</coordinates></Point></Placemark><Placemark><name>C100 BBS ES AP9 PK-71 A (La Coruña) - xaek</name><Point><coordinates>-8.52174,42.86143,0</coordinates></Point></Placemark><Placemark><name>C100 BBS PT A42 PK-29.1 A (Portugal) - slpro</name><Point><coordinates>-8.20667,41.33985,0</coordinates></Point></Placemark><Placemark><name>C100 BBS ES AP-9 PK-28F A (La Coruña) - Jose_M</name><Point><coordinates>-8.158,43.46559,0</coordinates></Point></Placemark><Placemark><name>C100 BBS ES H-31 PK-79.9 D (Huelva) - Ache</name><Point><coordinates>-6.89209,37.3082,0</coordinates></Point></Placemark><Placemark><name>C100 BBS ES A-49 PK-60 A (Huelva) - Ache</name><Point><coordinates>-6.67673,37.34286,0</coordinates></Point></Placemark><Placemark><name>C100 BBS ES A-49 PK-33.8 A/D (Huelva) - Ache</name><Point><coordinates>-6.39009,37.35335,0</coordinates></Point></Placemark><Placemark><name>C100 BBS ES A-480 PK-15.3 A (Cádiz) - max_auron</name><Point><coordinates>-6.26703,36.71975,0</coordinates></Point></Placemark><Placemark><name>C100 BBS PT IP2 PK-283.5 (Portugal) - Ache</name><Point><coordinates>-7.74825,38.47611,0</coordinates></Point></Placemark><Placemark><name>C100 BBS ES A-54 PK-14.5 A (Lugo) - tarranchin</name><Point><coordinates>-7.65707,42.93844,0</coordinates></Point></Placemark><Placemark><name>C100 BBS PT A4 PK-102 A/D (Portugal) - Tufão</name><Point><coordinates>-7.63439,41.32506,0</coordinates></Point></Placemark><Placemark><name>C100 BBS ES A-54 PK-12.1 D (Lugo) - Ache</name><Point><coordinates>-7.62913,42.93816,0</coordinates></Point></Placemark><Placemark><name>C100 BBS PT A4 PK-104.7 A (Portugal) - Olaloka</name><Point><coordinates>-7.61424,41.34087,0</coordinates></Point></Placemark><Placemark><name>C100 BBS PT A23 PK-143.1 D (Portugal) - Olaloka</name><Point><coordinates>-7.46701,40.02637,0</coordinates></Point></Placemark><Placemark><name>C100 BBS PT A25 PK-137.1 D (Portugal) - FerScrich</name><Point><coordinates>-7.42216,40.62961,0</coordinates></Point></Placemark><Placemark><name>C100 BBS PT IP2 PK-106 A (Portugal) - Olaloka</name><Point><coordinates>-7.33579,40.74603,0</coordinates></Point></Placemark><Placemark><name>C100 BBS PT IP2 PK-109 A (Portugal) - mscosta</name><Point><coordinates>-7.32494,40.7226,0</coordinates></Point></Placemark><Placemark><name>C100 BBS PT IP2 PK 114.4 A/D (Portugal) - mscosta</name><Point><coordinates>-7.3159,40.67991,0</coordinates></Point></Placemark><Placemark><name>C100 BBS PT A25 PK-147.6 D (Portugal) - mscosta</name><Point><coordinates>-7.31221,40.6419,0</coordinates></Point></Placemark><Placemark><name>C100 BBS PT A25 PK- 151.1 D (Portugal) - Olaloka</name><Point><coordinates>-7.28239,40.63889,0</coordinates></Point></Placemark><Placemark><name>C100 BBS PT A25 PK-159 A (Portugal) - Olaloka</name><Point><coordinates>-7.25287,40.57997,0</coordinates></Point></Placemark><Placemark><name>C100 BBS PT A25 PK-159.4 D (Portugal) - Tufão</name><Point><coordinates>-7.25128,40.57754,0</coordinates></Point></Placemark><Placemark><name>C100 BBS PT A25 PK-186.5 A (Portugal) - Olaloka</name><Point><coordinates>-6.9626,40.60407,0</coordinates></Point></Placemark><Placemark><name>C100 BBS ES A-480 PK-24 A (Cádiz) - Kaza</name><Point><coordinates>-6.18309,36.68468,0</coordinates></Point></Placemark><Placemark><name>C100 BBS ES A-381 PK-0.7 D (Cádiz) - Kaza</name><Point><coordinates>-6.08134,36.64852,0</coordinates></Point></Placemark><Placemark><name>C100 BBS ES A-376 PK-7.1 A (Sevilla) - Kaza</name><Point><coordinates>-5.89759,37.31717,0</coordinates></Point></Placemark><Placemark><name>C100 BBS ES A-92 PK-8.5 D (Sevilla) - Radardroid</name><Point><coordinates>-5.85709,37.35504,0</coordinates></Point></Placemark><Placemark><name>C100 BBS ES A-4 PK-524.8 D (Sevilla) - Kaza</name><Point><coordinates>-5.8215,37.43113,0</coordinates></Point></Placemark><Placemark><name>C100 BBS ES A-381 PK-83.1 D (Cádiz) - tarranchin</name><Point><coordinates>-5.50427,36.18389,0</coordinates></Point></Placemark><Placemark><name>C100 BBS ES A-7 PK-122 A (Cádiz) - Kaza</name><Point><coordinates>-5.35906,36.22787,0</coordinates></Point></Placemark><Placemark><name>C100 BBS ES A-7 PK-130.4 D (Cádiz) - loby</name><Point><coordinates>-5.31379,36.28119,0</coordinates></Point></Placemark><Placemark><name>C100 BBS ES A-7 PK-131 A (Cádiz) - Kaza</name><Point><coordinates>-5.31073,36.28653,0</coordinates></Point></Placemark><Placemark><name>C100 BBS ES CO-32 PK-0.9 D (Córdoba) - erbauhaus</name><Point><coordinates>-4.7872,37.82357,0</coordinates></Point></Placemark><Placemark><name>C100 BBS ES CO-32 PK-0.2 D (Córdoba) - erbauhaus</name><Point><coordinates>-4.77846,37.82276,0</coordinates></Point></Placemark><Placemark><name>C100 BBS ES A-92 PK-124.4 A/D (Sevilla) - Radardroid</name><Point><coordinates>-4.77744,37.18269,0</coordinates></Point></Placemark><Placemark><name>C100 BBS ES A-45 PK-0.5 D (Córdoba) - erbauhaus</name><Point><coordinates>-4.77128,37.82085,0</coordinates></Point></Placemark><Placemark><name>C100 BBS ES A-4 PK-401.9 A (Córdoba) - Kaza</name><Point><coordinates>-4.76229,37.87224,0</coordinates></Point></Placemark><Placemark><name>C100 BBS ES AP-66 PK-92.4 A (León) - mus</name><Point><coordinates>-5.89344,42.91265,0</coordinates></Point></Placemark><Placemark><name>C100 BBS ES AP-66 PK-95.7 D (León) - mus</name><Point><coordinates>-5.89192,42.88462,0</coordinates></Point></Placemark><Placemark><name>C100 BBS ES A-5 PK-269.4 D (Cáceres) - Kaza</name><Point><coordinates>-5.85773,39.32503,0</coordinates></Point></Placemark><Placemark><name>C100 BBS ES A-66 PK-422.9 D (Salamanca) - tarranchin</name><Point><coordinates>-5.84284,40.35072,0</coordinates></Point></Placemark><Placemark><name>C100 BBS ES A-8 PK-379.6 D (Asturias) - tarranchin</name><Point><coordinates>-5.65643,43.51611,0</coordinates></Point></Placemark><Placemark><name>C100 BBS ES VA-30 PK-18 A (Valladolid) - tarranchin</name><Point><coordinates>-4.7536,41.60806,0</coordinates></Point></Placemark><Placemark><name>C100 BBS ES N-601 PK-184.2 D (Valladolid) - tarranchin</name><Point><coordinates>-4.72372,41.59777,0</coordinates></Point></Placemark><Placemark><name>C100 BBS ES N-601 PK-181.1 D (Valladolid) - tarranchin</name><Point><coordinates>-4.71355,41.57077,0</coordinates></Point></Placemark><Placemark><name>C100 BBS ES N-601 PK-179.6D (Valladolid) - ferroman</name><Point><coordinates>-4.71,41.55887,0</coordinates></Point></Placemark><Placemark><name>C100 BBS ES VA-30 PK-13.9 D (Valladolid) - tarranchin</name><Point><coordinates>-4.70772,41.61467,0</coordinates></Point></Placemark><Placemark><name>C100 BBS ES N-601 PK-178.4 A (Valladolid) - tarranchin</name><Point><coordinates>-4.70639,41.54709,0</coordinates></Point></Placemark><Placemark><name>C100 BBS ES N-601 PK-177.1 D (Valladolid) - tarranchin</name><Point><coordinates>-4.70385,41.53614,0</coordinates></Point></Placemark><Placemark><name>C100 BBS ES A-7 PK-209 D (Málaga) - Kaza</name><Point><coordinates>-4.63509,36.53885,0</coordinates></Point></Placemark><Placemark><name>C100 BBS ES A-7 PK-226.4 A (Málaga) - Kaza</name><Point><coordinates>-4.51243,36.6473,0</coordinates></Point></Placemark><Placemark><name>C100 BBS ES AP-7 PK-227.1b D (Málaga) - Radardroid</name><Point><coordinates>-4.5086,36.63938,0</coordinates></Point></Placemark><Placemark><name>C100 BBS ES A-45 PK-131.9 A (Málaga) - Kaza</name><Point><coordinates>-4.45161,36.83958,0</coordinates></Point></Placemark><Placemark><name>V100 BBS ES A-45 PK-122.6 D (Málaga) - Kaza</name><Point><coordinates>-4.44134,36.90305,0</coordinates></Point></Placemark><Placemark><name>C100 BBS ES A-92M PK-16.4 A (Málaga) - Radardroid</name><Point><coordinates>-4.38999,37.02246,0</coordinates></Point></Placemark><Placemark><name>C100 BBS ES A-7 PK-251.5 A/D (Málaga) - FerScrich</name><Point><coordinates>-4.30962,36.72458,0</coordinates></Point></Placemark><Placemark><name>C100 BBS ES A-7 PK-937.4 A (Málaga) - Kaza</name><Point><coordinates>-3.93653,36.75559,0</coordinates></Point></Placemark><Placemark><name>C100 BBS ES A-316 PK-62.4 A (Jaén) - tarranchin</name><Point><coordinates>-3.88719,37.78252,0</coordinates></Point></Placemark><Placemark><name>C100 BBS ES A-316 PK-64.3 A/D (Jaén) - Kaza</name><Point><coordinates>-3.84497,37.78754,0</coordinates></Point></Placemark><Placemark><name>C100 BBS ES A-316 PK-62.6 A/D (Jaén) - Kaza</name><Point><coordinates>-3.82664,37.78915,0</coordinates></Point></Placemark><Placemark><name>C100 BBS ES A-92 PK-228.4 A (Granada) - Radardroid</name><Point><coordinates>-3.76542,37.19067,0</coordinates></Point></Placemark><Placemark><name>C100 BBS ES A-7 PK-304.1 D @ (Málaga) - Kaza</name><Point><coordinates>-3.76234,36.75,0</coordinates></Point></Placemark><Placemark><name>C100 BBS ES A-316 PK-43.9 D (Jaén) - FerScrich</name><Point><coordinates>-3.68951,37.8023,0</coordinates></Point></Placemark><Placemark><name>C100 BBS ES A-92G PK-4.9 A (Granada) - Radardroid</name><Point><coordinates>-3.68626,37.19235,0</coordinates></Point></Placemark><Placemark><name>C100 BBS ES A-7 PK-314.1 A (Granada) - Kaza</name><Point><coordinates>-3.6657,36.75724,0</coordinates></Point></Placemark><Placemark><name>C100 BBS ES GR-30 PK-1.1 A (Granada) - Kaza</name><Point><coordinates>-3.65904,37.25744,0</coordinates></Point></Placemark><Placemark><name>C100 BBS ES A-44 PK-73.5 D (Jaén) - anchonyo</name><Point><coordinates>-3.62383,37.56346,0</coordinates></Point></Placemark><Placemark><name>C100 BBS ES A-44 PK-72.5 D (Jaén) - Kaza</name><Point><coordinates>-3.61552,37.57055,0</coordinates></Point></Placemark><Placemark><name>C100 BBS ES GR-30 PK-16.4 A (Granada) - gvlj</name><Point><coordinates>-3.60872,37.1414,0</coordinates></Point></Placemark><Placemark><name>C100 BBS ES GR-14 PK-1 A (Granada) - tarranchin</name><Point><coordinates>-3.56325,36.76192,0</coordinates></Point></Placemark><Placemark><name>C100 BBS ES A-7 PK-326.1 D (Granada) - Kaza</name><Point><coordinates>-3.53819,36.77611,0</coordinates></Point></Placemark><Placemark><name>C100 BBS ES A-44 PK-167.1 A (Granada) - Kaza</name><Point><coordinates>-3.52265,36.89971,0</coordinates></Point></Placemark><Placemark><name>C100 BBS ES A-7 PK-893.5 D (Almería) - Forocoches</name><Point><coordinates>-3.49274,36.7737,0</coordinates></Point></Placemark><Placemark><name>C100 BBS ES A-7 PK-340.6 A (Granada) - Kaza</name><Point><coordinates>-3.45152,36.71543,0</coordinates></Point></Placemark><Placemark><name>C100 BBS ES A-316 PK-4.4 D (Jaén) - Kaza</name><Point><coordinates>-3.42894,38.00516,0</coordinates></Point></Placemark><Placemark><name>C100 BBS ES A-92 PK-284.9 A/D (Granada) - FerScrich</name><Point><coordinates>-3.23727,37.32652,0</coordinates></Point></Placemark><Placemark><name>C100 BBS ES M-501 PK-33.7 A/D (Madrid) - Radardroid</name><Point><coordinates>-4.17031,40.38227,0</coordinates></Point></Placemark><Placemark><name>C100 BBS ES M-501 PK-31.5 A (Madrid) - Radardroid</name><Point><coordinates>-4.14779,40.37512,0</coordinates></Point></Placemark><Placemark><name>C100 BBS ES M-501 PK-28.8 A (Madrid) - Radardroid</name><Point><coordinates>-4.1185,40.37479,0</coordinates></Point></Placemark><Placemark><name>C100 BBS ES AP-6 PK-48.1 D (Madrid) - Radardroid</name><Point><coordinates>-4.09948,40.66208,0</coordinates></Point></Placemark><Placemark><name>V100 BBS ES CM-40 PK-11.7 D (Toledo) - Radardroid</name><Point><coordinates>-4.09754,39.85534,0</coordinates></Point></Placemark><Placemark><name>C100 BBS ES A-42 PK-76 D (Toledo) - palanka</name><Point><coordinates>-3.98022,39.8397,0</coordinates></Point></Placemark><Placemark><name>C100 BBS ES M-501 PK-14.2 A (Madrid) - Radardroid</name><Point><coordinates>-3.96612,40.38142,0</coordinates></Point></Placemark><Placemark><name>C100 BBS ES M-503 PK-19 A (Madrid) - Ache</name><Point><coordinates>-3.95537,40.46,0</coordinates></Point></Placemark><Placemark><name>C100 BBS ES A-6 PK-32.5 A (Madrid) - Kaza</name><Point><coordinates>-3.95292,40.59147,0</coordinates></Point></Placemark><Placemark><name>C100 BBS ES VA-30 PK-10.4 D (Valladolid) - Radardroid</name><Point><coordinates>-4.67861,41.63624,0</coordinates></Point></Placemark><Placemark><name>C100 BBS ES VA-30 PK-6.8 D (Valladolid) - tarranchin</name><Point><coordinates>-4.66849,41.66783,0</coordinates></Point></Placemark><Placemark><name>C100 BBS ES A-11 PK-355.1 D (Valladolid) - tarranchin</name><Point><coordinates>-4.66438,41.6054,0</coordinates></Point></Placemark><Placemark><name>C100 BBS ES P-11 PK-3.1 D (Palencia) - tarranchin</name><Point><coordinates>-4.50752,41.9659,0</coordinates></Point></Placemark><Placemark><name>C100 BBS ES A-62 PK-88 A (Palencia) - Kaza</name><Point><coordinates>-4.5075,41.92166,0</coordinates></Point></Placemark><Placemark><name>C100 BBS ES A-67 PK-2 D (Palencia) - Kaza</name><Point><coordinates>-4.50476,41.94722,0</coordinates></Point></Placemark><Placemark><name>C100 BBS ES A-67 PK-0 D (Palencia) - Sergiotas</name><Point><coordinates>-4.50377,41.92829,0</coordinates></Point></Placemark><Placemark><name>V100 BBS ES A-67 PK-179.8 D (Cantabria) - Kaza</name><Point><coordinates>-4.03172,43.33895,0</coordinates></Point></Placemark><Placemark><name>C100 BBS ES A-4 PK-274.3 D (Jaén) - anchonyo</name><Point><coordinates>-3.62901,38.23164,0</coordinates></Point></Placemark><Placemark><name>C100 BBS ES M-503 PK-14.3 D (Madrid) - Forocoches</name><Point><coordinates>-3.90199,40.45677,0</coordinates></Point></Placemark><Placemark><name>C100 BBS ES M-50 PK-74.3 D (Madrid) - Radardroid</name><Point><coordinates>-3.87969,40.43464,0</coordinates></Point></Placemark><Placemark><name>C100 BBS ES M-407 PK-14.3 A (Madrid) - Radardroid</name><Point><coordinates>-3.87047,40.2255,0</coordinates></Point></Placemark><Placemark><name>C100 BBS ES M-501 PK-2.1 A/D (Madrid) - Radardroid</name><Point><coordinates>-3.85774,40.39836,0</coordinates></Point></Placemark><Placemark><name>C100 BBS ES M-407 PK-11.7 A (Madrid) - jucain</name><Point><coordinates>-3.85541,40.24415,0</coordinates></Point></Placemark><Placemark><name>C100 BBS ES A-5vs PK-14.9 A (Madrid) - Kaza</name><Point><coordinates>-3.84758,40.35186,0</coordinates></Point></Placemark><Placemark><name>C100 BBS ES M-501 PK-0.9 A/D @ (Madrid) - djse</name><Point><coordinates>-3.84269,40.39719,0</coordinates></Point></Placemark><Placemark><name>C100 BBS ES A-6 PK-15.1 A @ (Madrid) - anchonyo</name><Point><coordinates>-3.83946,40.47634,0</coordinates></Point></Placemark><Placemark><name>C100 BBS ES M-40 - PK 33 A/D (Madrid) - anchonyo</name><Point><coordinates>-3.80635,40.37538,0</coordinates></Point></Placemark><Placemark><name>C100 BBS ES M-40 PK 46.4 - Madrid A (Madrid) - anchonyo</name><Point><coordinates>-3.79671,40.46376,0</coordinates></Point></Placemark><Placemark><name>C100 BBS ES M-503 PK-3.5 A (Madrid) - anchonyo</name><Point><coordinates>-3.79663,40.43427,0</coordinates></Point></Placemark><Placemark><name>V100 BBS ES M-40 PK-26.6 D (Madrid) - anchonyo</name><Point><coordinates>-3.73888,40.36173,0</coordinates></Point></Placemark><Placemark><name>C100 BBS ES M-45 PK-3.9 A/D (Madrid) - Ache</name><Point><coordinates>-3.73557,40.3479,0</coordinates></Point></Placemark><Placemark><name>C100 BBS ES M-607 PK-20.9 D (Madrid) - Radardroid</name><Point><coordinates>-3.70591,40.58212,0</coordinates></Point></Placemark><Placemark><name>C100 BBS ES M-607 PK-16.9 A (Madrid) - Radardroid</name><Point><coordinates>-3.70445,40.54786,0</coordinates></Point></Placemark><Placemark><name>C100 BBS ES A-4 PK-20.3 A (Madrid) - Kaza</name><Point><coordinates>-3.69009,40.24547,0</coordinates></Point></Placemark><Placemark><name>C100 BBS ES M-607 PK-13.9 D (Madrid) - Radardroid</name><Point><coordinates>-3.68861,40.52416,0</coordinates></Point></Placemark><Placemark><name>C100 BBS ES A-4 PK-25 D (Madrid) - anchonyo</name><Point><coordinates>-3.67903,40.20451,0</coordinates></Point></Placemark><Placemark><name>C100 BBS ES M-301 PK-3.1 D (Madrid) - tarranchin</name><Point><coordinates>-3.67003,40.32077,0</coordinates></Point></Placemark><Placemark><name>C100 BBS ES M-40 PK-20 D (Madrid) - anchonyo</name><Point><coordinates>-3.66435,40.36404,0</coordinates></Point></Placemark><Placemark><name>C100 BBS ES M-40 PK-1.2 A/D (Madrid) - Radardroid</name><Point><coordinates>-3.64825,40.50213,0</coordinates></Point></Placemark><Placemark><name>C100 BBS ES A-3 PK-7.4 D (Madrid) - Kaza</name><Point><coordinates>-3.62318,40.39134,0</coordinates></Point></Placemark><Placemark><name>C100 BBS ES M-40 PK-14 A (Madrid) - Radardroid</name><Point><coordinates>-3.62237,40.40976,0</coordinates></Point></Placemark><Placemark><name>C100 BBS ES M-11 PK-6.4 D (Madrid) - Radardroid</name><Point><coordinates>-3.60864,40.47201,0</coordinates></Point></Placemark><Placemark><name>C100 BBS ES A-3 PK-9.2 D @ (Madrid) - Kaza</name><Point><coordinates>-3.6047,40.38481,0</coordinates></Point></Placemark><Placemark><name>C100 BBS ES A-1 PK-37.4 D @ (Madrid) - anchonyo</name><Point><coordinates>-3.59395,40.69283,0</coordinates></Point></Placemark><Placemark><name>C100 BBS ES M-21 PK-0.9 A (Madrid) - Radardroid</name><Point><coordinates>-3.5907,40.44146,0</coordinates></Point></Placemark><Placemark><name>C100 BBS ES M-111 PK-18.1 D (Madrid) - Radardroid</name><Point><coordinates>-3.54764,40.61073,0</coordinates></Point></Placemark><Placemark><name>V100 BBS ES A-4 PK-135.1 A (Ciudad Real) - Kaza</name><Point><coordinates>-3.4787,39.33102,0</coordinates></Point></Placemark><Placemark><name>C100 BBS ES M-115 PK-3.9 D (Madrid) - Radardroid</name><Point><coordinates>-3.48902,40.48201,0</coordinates></Point></Placemark><Placemark><name>C100 BBS ES M-115 PK-4.3 D (Madrid) - zedarcas</name><Point><coordinates>-3.48513,40.48409,0</coordinates></Point></Placemark><Placemark><name>C100 BBS ES M-203 PK-19.7 D (Madrid) - caceres222</name><Point><coordinates>-3.41956,40.45195,0</coordinates></Point></Placemark><Placemark><name>C100 BBS ES A-2 PK-52.2 D (Guadalajara) - Kaza</name><Point><coordinates>-3.19008,40.62591,0</coordinates></Point></Placemark><Placemark><name>C100 BBS ES A-2 PK-56.5 D (Guadalajara) - anchonyo</name><Point><coordinates>-3.1486,40.63031,0</coordinates></Point></Placemark><Placemark><name>C100 BBS ES A-1 PK-69.5 A (Madrid) - Kaza</name><Point><coordinates>-3.63465,40.94431,0</coordinates></Point></Placemark><Placemark><name>C100 BBS ES A-1 PK-95.6 A (Segovia) - Todopoi</name><Point><coordinates>-3.5834,41.16038,0</coordinates></Point></Placemark><Placemark><name>C100 BBS ES A-1 PK-93.3 A (Madrid) - Kaza</name><Point><coordinates>-3.58102,41.14127,0</coordinates></Point></Placemark><Placemark><name>C100 BBS ES A-8 PK-162 D (Cantabria) - Radardroid</name><Point><coordinates>-3.33802,43.3909,0</coordinates></Point></Placemark><Placemark><name>C100 BBS ES A-8 PK-159.5 D (Cantabria) - beraun</name><Point><coordinates>-3.31514,43.38868,0</coordinates></Point></Placemark><Placemark><name>C100 BBS ES A-8 PK-151 A (Cantabria) - Radardroid</name><Point><coordinates>-3.23445,43.39123,0</coordinates></Point></Placemark><Placemark><name>C100 BBS ES A-8 PK-150.4 D (Cantabria) - Radardroid</name><Point><coordinates>-3.23327,43.38583,0</coordinates></Point></Placemark><Placemark><name>Radares BBS www.laradiobbs.net Actualizacion: miércoles, 7 de mayo de 2025 a las 07:08 - Semana: 19</name><Point><coordinates>0,0,0</coordinates></Point></Placemark><Placemark><name>C100 BBS ES A-92N PK-17 D (Granada) - Radardroid</name><Point><coordinates>-2.98217,37.39756,0</coordinates></Point></Placemark><Placemark><name>C100 BBS ES A-92N PK-26 A (Granada) - Radardroid</name><Point><coordinates>-2.90815,37.43038,0</coordinates></Point></Placemark><Placemark><name>C100 BBS ES A-92N PK-26.5 D (Granada) - Radardroid</name><Point><coordinates>-2.90504,37.4335,0</coordinates></Point></Placemark><Placemark><name>C100 BBS ES A-334 PK-77.5 A/D (Almería) - Kaza</name><Point><coordinates>-2.07072,37.36188,0</coordinates></Point></Placemark><Placemark><name>C100 BBS ES A-7 PK-638.9 A (Murcia) - Kaza</name><Point><coordinates>-1.72696,37.64985,0</coordinates></Point></Placemark><Placemark><name>C100 BBS ES A-7 PK-638.1 D (Murcia) - Kaza</name><Point><coordinates>-1.71907,37.65383,0</coordinates></Point></Placemark><Placemark><name>C100 BBS ES A-3 PK-73.1 D (Cuenca) - Kaza</name><Point><coordinates>-3.07145,40.05619,0</coordinates></Point></Placemark><Placemark><name>C100 BBS ES A-3 PK-75 A (Cuenca) - Kaza</name><Point><coordinates>-3.0593,40.0435,0</coordinates></Point></Placemark><Placemark><name>C100 BBS ES A-2 PK-77.6 D (Guadalajara) - FerScrich</name><Point><coordinates>-2.9947,40.77385,0</coordinates></Point></Placemark><Placemark><name>C100 BBS ES AP-1 PK-60 A (Burgos) - Bichobio</name><Point><coordinates>-3.10614,42.63738,0</coordinates></Point></Placemark><Placemark><name>V100 BBS ES AP-1 PK-61.1 A (Burgos) - Radardroid</name><Point><coordinates>-3.09417,42.64216,0</coordinates></Point></Placemark><Placemark><name>C100 BBS ES A-8 PK-133 D @ (Vizcaya) - Radardroid</name><Point><coordinates>-3.08839,43.32957,0</coordinates></Point></Placemark><Placemark><name>C100 BBS ES A-8 PK-131 A (Vizcaya) - Radardroid</name><Point><coordinates>-3.06709,43.32736,0</coordinates></Point></Placemark><Placemark><name>C100 BBS ES AP-1 PK-63.7 A (Burgos) - tarranchin</name><Point><coordinates>-3.06709,42.65147,0</coordinates></Point></Placemark><Placemark><name>C100 BBS ES A-8 PK-130 D (Vizcaya) - Kaza</name><Point><coordinates>-3.05691,43.32295,0</coordinates></Point></Placemark><Placemark><name>C100 BBS ES N-637 PK-13.2 A (Vizcaya) - enekom</name><Point><coordinates>-2.94382,43.29216,0</coordinates></Point></Placemark><Placemark><name>C100 BBS ES N-637 PK- 14.2 A (Vizcaya) - enekom</name><Point><coordinates>-2.93628,43.28654,0</coordinates></Point></Placemark><Placemark><name>C100 BBS ES BI-631 PK-14.9 @ (Vizcaya) - jam23</name><Point><coordinates>-2.87015,43.33059,0</coordinates></Point></Placemark><Placemark><name>C100 BBS ES N-622 PK-20 A (Álava) - Radardroid</name><Point><coordinates>-2.8278,42.96132,0</coordinates></Point></Placemark><Placemark><name>C100 BBS ES A-1 PK-336.3 D (Burgos) - Ache</name><Point><coordinates>-2.82412,42.78287,0</coordinates></Point></Placemark><Placemark><name>C100 BBS ES A-1 PK-336.8 D (Álava) - Ache</name><Point><coordinates>-2.82326,42.78876,0</coordinates></Point></Placemark><Placemark><name>C100 BBS ES N-102 PK-344 D (Álava) - tarranchin</name><Point><coordinates>-2.75418,42.82622,0</coordinates></Point></Placemark><Placemark><name>C100 BBS ES N-102 PK-345.6 A (Álava) - Todopoi</name><Point><coordinates>-2.73451,42.82833,0</coordinates></Point></Placemark><Placemark><name>C100 BBS ES N-622 PK-10.7 A (Álava) - Smart_Drugs</name><Point><coordinates>-2.73087,42.92475,0</coordinates></Point></Placemark><Placemark><name>V100 BBS ES N-622 PK-7.8 D @ (Álava) - Smart_Drugs</name><Point><coordinates>-2.71138,42.90361,0</coordinates></Point></Placemark><Placemark><name>C100 BBS ES N-622 PK-6.5 A/D (Álava) - aijopa</name><Point><coordinates>-2.70102,42.89337,0</coordinates></Point></Placemark><Placemark><name>C100 BBS ES N-240 PK-5.6 D (Álava) - Ache</name><Point><coordinates>-2.65425,42.88728,0</coordinates></Point></Placemark><Placemark><name>C100 BBS ES N-240 PK-6.8 D (Álava) - Todopoi</name><Point><coordinates>-2.65104,42.89771,0</coordinates></Point></Placemark><Placemark><name>C100 BBS ES LO-20 PK-13.2 D (La Rioja) - Radardroid</name><Point><coordinates>-2.50128,42.45443,0</coordinates></Point></Placemark><Placemark><name>C100 BBS ES N-I PK-417 D (Guipúzcoa) - laiosa</name><Point><coordinates>-2.21809,43.03562,0</coordinates></Point></Placemark><Placemark><name>C100 BBS ES N-I PK-418.7 A (Guipúzcoa) - laiosa</name><Point><coordinates>-2.20538,43.04552,0</coordinates></Point></Placemark><Placemark><name>C100 BBS ES N-I PK-420.7 A (Guipúzcoa) - laiosa</name><Point><coordinates>-2.18328,43.0495,0</coordinates></Point></Placemark><Placemark><name>C100 BBS ES N-I PK-424.9 (Guipúzcoa) - beraun</name><Point><coordinates>-2.15608,43.07833,0</coordinates></Point></Placemark><Placemark><name>C100 BBS ES A-1 PK-436.1 A (Guipúzcoa) - Kaza</name><Point><coordinates>-2.06943,43.13852,0</coordinates></Point></Placemark><Placemark><name>C100 BBS ES N-I PK-437.6 A (Guipúzcoa) - Radardroid</name><Point><coordinates>-2.06888,43.15308,0</coordinates></Point></Placemark><Placemark><name>C100 BBS ES N-I PK-440.2 D (Guipúzcoa) - Radardroid</name><Point><coordinates>-2.05885,43.17459,0</coordinates></Point></Placemark><Placemark><name>C100 BBS ES GI-20 PK-15 A (Guipúzcoa) - Radardroid</name><Point><coordinates>-2.03192,43.28645,0</coordinates></Point></Placemark><Placemark><name>C100 BBS ES A-12 PK-12.2 A (Navarra) - tarranchin</name><Point><coordinates>-1.74475,42.74231,0</coordinates></Point></Placemark><Placemark><name>C100 BBS ES PA-30 PK-3.2 D (Navarra) - tarranchin</name><Point><coordinates>-1.61274,42.79452,0</coordinates></Point></Placemark><Placemark><name>V100 BBS ES RM-15 PK-17 A (Murcia) - tude1991</name><Point><coordinates>-1.41655,38.0331,0</coordinates></Point></Placemark><Placemark><name>V100 BBS ES RM-15 PK-17 D (Murcia) - tude1991</name><Point><coordinates>-1.41616,38.03254,0</coordinates></Point></Placemark><Placemark><name>C100 BBS ES RM-23 PK-8.7 D (Murcia) - tude1991</name><Point><coordinates>-1.36367,37.72212,0</coordinates></Point></Placemark><Placemark><name>C100 BBS ES A-30 PK-130.5 A (Murcia) - Kaza</name><Point><coordinates>-1.18948,38.05899,0</coordinates></Point></Placemark><Placemark><name>C100 BBS ES RM-19 PK-1.2 A (Murcia) - Antonio951</name><Point><coordinates>-1.10676,37.86748,0</coordinates></Point></Placemark><Placemark><name>C100 BBS ES RM-12 PK-6.1 A (Murcia) - Antonio951</name><Point><coordinates>-0.84096,37.64245,0</coordinates></Point></Placemark><Placemark><name>C100 BBS ES A-30 PK-111.8 A (Murcia) - Forocoches</name><Point><coordinates>-1.32027,38.18373,0</coordinates></Point></Placemark><Placemark><name>C100 BBS ES A-23 PK-227.1 A (Zaragoza) - tarranchin</name><Point><coordinates>-1.24639,41.25835,0</coordinates></Point></Placemark><Placemark><name>C100 BBS ES N-330 PK-509.2 D (Zaragoza) - Radardroid</name><Point><coordinates>-0.85059,41.72973,0</coordinates></Point></Placemark><Placemark><name>C100 BBS ES A-23 PK-58 D (Castellón) - mus</name><Point><coordinates>-0.69034,40.00849,0</coordinates></Point></Placemark><Placemark><name>C100 BBS ES A-7 PK-480.6 A (Alicante) - RaFiYa</name><Point><coordinates>-0.60301,38.51227,0</coordinates></Point></Placemark><Placemark><name>C100 BBS ES A-7 PK-486.6 D (Alicante) - Kaza</name><Point><coordinates>-0.58424,38.46641,0</coordinates></Point></Placemark><Placemark><name>C100 BBS ES A-7 PK-375.2 A (Valencia) - Kaza</name><Point><coordinates>-0.51236,39.18272,0</coordinates></Point></Placemark><Placemark><name>C100 BBS ES A-7 PK-425.8 D (Valencia) - Kaza</name><Point><coordinates>-0.50286,38.81581,0</coordinates></Point></Placemark><Placemark><name>C100 BBS ES A-23 PK-26.8 A (Castellón) - Kaza</name><Point><coordinates>-0.46276,39.82882,0</coordinates></Point></Placemark><Placemark><name>C100 BBS ES A-7 PK-446.5 A (Alicante) - Kaza</name><Point><coordinates>-0.45496,38.70428,0</coordinates></Point></Placemark><Placemark><name>C100 BBS ES A-7 PK-431.5 D (Alicante) - Kaza</name><Point><coordinates>-0.45349,38.79788,0</coordinates></Point></Placemark><Placemark><name>C100 BBS ES A-7 PK-445.9 D (Alicante) - Kaza</name><Point><coordinates>-0.45224,38.70869,0</coordinates></Point></Placemark><Placemark><name>C100 BBS ES A-23 PK-24 A (Castellón) - vaskito</name><Point><coordinates>-0.43529,39.81405,0</coordinates></Point></Placemark><Placemark><name>C100 BBS ES A-23 PK-21.8 D (Castellón) - Kaza</name><Point><coordinates>-0.41896,39.80031,0</coordinates></Point></Placemark><Placemark><name>C100 BBS ES V-31 PK-8.5 A (Valencia) - Radardroid</name><Point><coordinates>-0.38617,39.4014,0</coordinates></Point></Placemark><Placemark><name>C100 BBS ES A-38 PK-2.3 (Valencia) - Kaza</name><Point><coordinates>-0.37156,39.26669,0</coordinates></Point></Placemark><Placemark><name>C100 BBS ES A-23 PK-7.4 - Albalat dels Tarongers (Valencia) - lacabra</name><Point><coordinates>-0.3446,39.69953,0</coordinates></Point></Placemark><Placemark><name>C100 BBS ES A-23 PK-5.9 D (Valencia) - Kaza</name><Point><coordinates>-0.33245,39.6894,0</coordinates></Point></Placemark><Placemark><name>C100 BBS ES N-332 PK-146.6 D (Alicante) - tarranchin</name><Point><coordinates>-0.14773,38.54977,0</coordinates></Point></Placemark><Placemark><name>C100 BBS ES CV-10 PK-22.5 D (Castellón) - Radardroid</name><Point><coordinates>-0.06993,40.03866,0</coordinates></Point></Placemark><Placemark><name>C100 BBS ES CV-149 PK-4 D (Castellón) - Radardroid</name><Point><coordinates>0.00018,40.02276,0</coordinates></Point></Placemark><Placemark><name>C100 BBS ES A-68 PK-225.1 D (Zaragoza) - tarranchin</name><Point><coordinates>-0.77366,41.58317,0</coordinates></Point></Placemark><Placemark><name>C100 BBS ES CV-13 PK-1.4 A (Castellón) - tarranchin</name><Point><coordinates>0.05632,40.19665,0</coordinates></Point></Placemark><Placemark><name>C100 BBS ES C-42 PK-6.1 D (Tarragona) - Radardroid</name><Point><coordinates>0.55861,40.76669,0</coordinates></Point></Placemark><Placemark><name>C100 BBS ES N-340 PK-1083 D (Tarragona) - rapitenc</name><Point><coordinates>0.59208,40.71952,0</coordinates></Point></Placemark><Placemark><name>C100 BBS ES C-13B PK-4.3 A (Lérida) - tarranchin</name><Point><coordinates>0.66488,41.60172,0</coordinates></Point></Placemark><Placemark><name>C100 BBS ES LL-11 PK-1.6 A (Lérida) - Radardroid</name><Point><coordinates>0.73786,41.62789,0</coordinates></Point></Placemark><Placemark><name>C100 BBS ES T-11 PK-2.8 D (Tarragona) - Radardroid</name><Point><coordinates>1.08105,41.15225,0</coordinates></Point></Placemark><Placemark><name>C100 BBS ES T-11 PK-7.9 A (Tarragona) - Radardroid</name><Point><coordinates>1.12142,41.1304,0</coordinates></Point></Placemark><Placemark><name>C100 BBS ES A-7 PK-1154 D (Tarragona) - DAVID25TGN</name><Point><coordinates>1.15654,41.10995,0</coordinates></Point></Placemark><Placemark><name>C100 BBS ES C31b PK-7.3 D (Tarragona) - Radardroid</name><Point><coordinates>1.19414,41.10301,0</coordinates></Point></Placemark><Placemark><name>C100 BBS ES A-27 PK-7 A (Tarragona) - Kaza</name><Point><coordinates>1.21404,41.16832,0</coordinates></Point></Placemark><Placemark><name>C100 BBS ES A-27 PK-3.1 D (Tarragona) - caceres222</name><Point><coordinates>1.23203,41.13917,0</coordinates></Point></Placemark><Placemark><name>C100 BBS ES A-7 PK-1170.3 A (Tarragona) - Kaza</name><Point><coordinates>1.32897,41.13698,0</coordinates></Point></Placemark><Placemark><name>C100 BBS ES A-2 PK-563.1 D (Barcelona) - Ache</name><Point><coordinates>1.71066,41.59823,0</coordinates></Point></Placemark><Placemark><name>C100 BBS ES A-2 PK-563.2 A (Barcelona) - Kaza</name><Point><coordinates>1.71148,41.59766,0</coordinates></Point></Placemark><Placemark><name>C100 BBS ES A-2 PK-573 D (Barcelona) - Ache</name><Point><coordinates>1.80268,41.56876,0</coordinates></Point></Placemark><Placemark><name>C100 BBS ES A-2 PK-574.7 A (Barcelona) - Kaza</name><Point><coordinates>1.81831,41.56153,0</coordinates></Point></Placemark><Placemark><name>C100 BBS ES C-25 PK-134.1 A (Barcelona) - Radardroid</name><Point><coordinates>1.82339,41.74131,0</coordinates></Point></Placemark><Placemark><name>C100 BBS ES C-25 PK-134.5 D (Barcelona) - Radardroid</name><Point><coordinates>1.82778,41.7436,0</coordinates></Point></Placemark><Placemark><name>C100 BBS ES A-2 PK-576.4 D (Barcelona) - Kaza</name><Point><coordinates>1.83597,41.55701,0</coordinates></Point></Placemark><Placemark><name>C100 BBS ES A-2 PK-581.7 A (Barcelona) - Kaza</name><Point><coordinates>1.88062,41.52616,0</coordinates></Point></Placemark><Placemark><name>C100 BBS ES C-16 PK-82.9 A (Barcelona) - Ache</name><Point><coordinates>1.88671,41.98019,0</coordinates></Point></Placemark><Placemark><name>V100 BBS ES AP-7 PK-173.4 D (Barcelona) - Radardroid</name><Point><coordinates>1.88927,41.45739,0</coordinates></Point></Placemark><Placemark><name>C100 BBS ES A-2 PK-586.6 A (Barcelona) - Mazinguer</name><Point><coordinates>1.92055,41.49596,0</coordinates></Point></Placemark><Placemark><name>C100 BBS ES A-2 PK-587.4 A/D (Barcelona) - diessel</name><Point><coordinates>1.92699,41.49145,0</coordinates></Point></Placemark><Placemark><name>C100 BBS ES C-32 PK-42.6 A (Barcelona) - tarranchin</name><Point><coordinates>1.94284,41.26553,0</coordinates></Point></Placemark><Placemark><name>C100 BBS ES B-23 PK-7.4 A @ (Barcelona) - Radardroid</name><Point><coordinates>2.03383,41.37567,0</coordinates></Point></Placemark><Placemark><name>C100 BBS ES C-16 PK-9.6 D (Barcelona) - Forocoches</name><Point><coordinates>2.06663,41.45769,0</coordinates></Point></Placemark><Placemark><name>C100 BBS ES C-16 PK-9.2 D (Barcelona) - Ache</name><Point><coordinates>2.06792,41.45418,0</coordinates></Point></Placemark><Placemark><name>C100 BBS ES C-16 PK-7.7 D (Barcelona) - Ache</name><Point><coordinates>2.07098,41.44062,0</coordinates></Point></Placemark><Placemark><name>C100 BBS ES B-40 PK-9.9 D (Barcelona) - tarranchin</name><Point><coordinates>1.98989,41.57001,0</coordinates></Point></Placemark><Placemark><name>C100 BBS ES B-30 PK-5.4 D (Barcelona) - Ache</name><Point><coordinates>2.07193,41.48882,0</coordinates></Point></Placemark><Placemark><name>C100 BBS ES C-58c PK-2.5 A (Barcelona) - Forocoches</name><Point><coordinates>2.07773,41.56261,0</coordinates></Point></Placemark><Placemark><name>C100 BBS ES C58c PK-1.5 A (Barcelona) - Ache</name><Point><coordinates>2.07779,41.55457,0</coordinates></Point></Placemark><Placemark><name>C100 BBS ES C-25 PK-168.8 A (Gerona) - Ache</name><Point><coordinates>2.13723,41.91788,0</coordinates></Point></Placemark><Placemark><name>C100 BBS ES AP-7 PK-144.4 A (Barcelona) - anchonyo</name><Point><coordinates>2.16599,41.52512,0</coordinates></Point></Placemark><Placemark><name>C100 BBS ES C-33 PK-82.5 D (Barcelona) - Radardroid</name><Point><coordinates>2.19081,41.49584,0</coordinates></Point></Placemark><Placemark><name>C100 BBS ES C-17 PK-89.3 A (Gerona) - Radardroid</name><Point><coordinates>2.20054,42.1556,0</coordinates></Point></Placemark><Placemark><name>C100 BBS ES C-17 PK-84.6 A (Gerona) - Ache</name><Point><coordinates>2.20121,42.11284,0</coordinates></Point></Placemark><Placemark><name>C100 BBS ES C-17 PK-46.5 D (Barcelona) - Ache</name><Point><coordinates>2.22944,41.81538,0</coordinates></Point></Placemark><Placemark><name>C100 BBS ES C-17 PK-75.7 D (Barcelona) - Ache</name><Point><coordinates>2.23431,42.05193,0</coordinates></Point></Placemark><Placemark><name>C100 BBS ES C-17 PK-48 A (Barcelona) - Radardroid</name><Point><coordinates>2.23467,41.8268,0</coordinates></Point></Placemark><Placemark><name>C100 BBS ES C-17 PK 63.4 A (Barcelona) - Ache</name><Point><coordinates>2.24006,41.95365,0</coordinates></Point></Placemark><Placemark><name>C100 BBS ES C-17 K-54.4 A/D (Barcelona) - Ache</name><Point><coordinates>2.24073,41.88165,0</coordinates></Point></Placemark><Placemark><name>C100 BBS ES C-17 PK-67.6 D (Barcelona) - Radardroid</name><Point><coordinates>2.24235,41.98746,0</coordinates></Point></Placemark><Placemark><name>C100 BBS ES C-17 PK-29.5 D (Barcelona) - Radardroid</name><Point><coordinates>2.27849,41.68581,0</coordinates></Point></Placemark><Placemark><name>C100 BBS ES C-17 PK-30.8 A (Barcelona) - Radardroid</name><Point><coordinates>2.28311,41.69662,0</coordinates></Point></Placemark><Placemark><name>C100 BBS ES Ma-15 PK-29.3 D (Baleares) - Radardroid</name><Point><coordinates>2.98922,39.56074,0</coordinates></Point></Placemark><Placemark><name>C100 BBS ES C-25 PK-198.1 D (Gerona) - Radardroid</name><Point><coordinates>2.3969,41.88059,0</coordinates></Point></Placemark><Placemark><name>C100 BBS ES C-32 PK-102.3 A (Barcelona) - urbo83</name><Point><coordinates>2.45245,41.55555,0</coordinates></Point></Placemark><Placemark><name>C100 BBS ES C-25 PK-204.8 (Gerona) - Radardroid</name><Point><coordinates>2.45662,41.84924,0</coordinates></Point></Placemark><Placemark><name>C100 BBS ES C-32 PK-103 D (Barcelona) - Radardroid</name><Point><coordinates>2.46065,41.55797,0</coordinates></Point></Placemark><Placemark><name>C100 BBS ES C-25 PK-209.8 A (Barcelona) - jjpual</name><Point><coordinates>2.50476,41.85574,0</coordinates></Point></Placemark><Placemark><name>C100 BBS ES C-25 PK-213.5 D (Barcelona) - Ache</name><Point><coordinates>2.53852,41.84811,0</coordinates></Point></Placemark><Placemark><name>C100 BBS ES C-25 PK-213.5 A (Barcelona) - Ache</name><Point><coordinates>2.53866,41.84768,0</coordinates></Point></Placemark><Placemark><name>C100 BBS ES C-32 PK-128.3 D (Barcelona) - DCASama</name><Point><coordinates>2.70205,41.65428,0</coordinates></Point></Placemark><Placemark><name>C100 BBS ES A-26 PK-75.3 D (Gerona) - Ache</name><Point><coordinates>2.58347,42.21923,0</coordinates></Point></Placemark><Placemark><name>C100 BBS ES A-26 PK-72.8 D (Gerona) - Ache</name><Point><coordinates>2.61199,42.21323,0</coordinates></Point></Placemark><Placemark><name>C100 BBS ES A-26 PK-67.7 D (Gerona) - Kaza</name><Point><coordinates>2.6697,42.21071,0</coordinates></Point></Placemark><Placemark><name>C100 BBS ES A-26 PK-66.2 D (Gerona) - Ache</name><Point><coordinates>2.68747,42.20601,0</coordinates></Point></Placemark><Placemark><name>C100 BBS ES C-35 PK-86.1 D (Gerona) - Ache</name><Point><coordinates>2.76963,41.78393,0</coordinates></Point></Placemark><Placemark><name>C100 BBS ES C-25 PK-235.4 A (Gerona) - Ache</name><Point><coordinates>2.76981,41.8688,0</coordinates></Point></Placemark><Placemark><name>C100 BBS ES AP-7 PK-71.5 D (Gerona) - Ache</name><Point><coordinates>2.77515,41.89716,0</coordinates></Point></Placemark><Placemark><name>C100 BBS ES A-2 PK-708.5 A (Gerona) - Ache</name><Point><coordinates>2.79276,41.92028,0</coordinates></Point></Placemark><Placemark><name>C100 BBS ES C-35 PK-96.7 D (Gerona) - Radardroid</name><Point><coordinates>2.89679,41.81207,0</coordinates></Point></Placemark><Placemark><name>C100 BBS ES C-65 PK-7.6 D (Gerona) - Ache</name><Point><coordinates>2.9478,41.8269,0</coordinates></Point></Placemark><Placemark><name>C100 BBS ES C-31 PK-310.3 A (Gerona) - Radardroid</name><Point><coordinates>3.0059,41.80849,0</coordinates></Point></Placemark><Placemark><name>C100 BBS ES C-31 PK-322.9 A (Gerona) - Ache</name><Point><coordinates>3.10232,41.86041,0</coordinates></Point></Placemark><Placemark><name>C100 BBS ES C-31 PK-330 A (Gerona) - Ache</name><Point><coordinates>3.14534,41.8991,0</coordinates></Point></Placemark><Placemark><name>C100 BBS ES C-260 PK-31.2 (Gerona) - Ache</name><Point><coordinates>3.02536,42.26774,0</coordinates></Point></Placemark></Folder></kml>
