<?xml version="1.0" encoding="ISO-8859-1"?>
<kml xmlns="http://earth.google.com/kml/2.0"><Folder><Placemark><name>P050 BBS PT Túnel do Marquês E/O - Lisboa (Portugal) - FerScrich</name><Point><coordinates>-9.16059,38.72427,0</coordinates></Point></Placemark><Placemark><name>P050 BBS PT Túnel do Marquês N/S - Lisboa (Portugal) - Ache</name><Point><coordinates>-9.14928,38.72685,0</coordinates></Point></Placemark><Placemark><name>P070 BBS PT IC17 PK-6.1 - Benfica D (Portugal) - Ache</name><Point><coordinates>-9.20869,38.74654,0</coordinates></Point></Placemark><Placemark><name>P070 BBS PT IC17 PK-7.4 - Amadora (Portugal) - Ache</name><Point><coordinates>-9.20674,38.75854,0</coordinates></Point></Placemark><Placemark><name>P050 BBS ES Túneles M-30 - Madrid (Madrid) - jose-m-m</name><Point><coordinates>-3.6854,40.37906,0</coordinates></Point></Placemark><Placemark><name>P070 BBS ES Túneles M-30 - Madrid (Madrid) - Ache</name><Point><coordinates>-3.69592,40.38762,0</coordinates></Point></Placemark><Placemark><name>P070 BBS ES Túneles M-30 - Madrid (Madrid) - guaje47</name><Point><coordinates>-3.70329,40.39364,0</coordinates></Point></Placemark><Placemark><name>P070 BBS ES Túneles M-30 - Madrid (Madrid) - guaje47</name><Point><coordinates>-3.70266,40.39547,0</coordinates></Point></Placemark><Placemark><name>P070 BBS ES Túneles M-30 - Madrid (Madrid) - guaje47</name><Point><coordinates>-3.70535,40.3968,0</coordinates></Point></Placemark><Placemark><name>P070 BBS ES Túneles M-30 - Madrid (Madrid) - guaje47</name><Point><coordinates>-3.71414,40.3979,0</coordinates></Point></Placemark><Placemark><name>P070 BBS ES Túneles M-30 - Madrid (Madrid) - guaje47</name><Point><coordinates>-3.71567,40.3992,0</coordinates></Point></Placemark><Placemark><name>P050 BBS ES M-30 PK-16.5 - Madrid D @ (Madrid) - guaje47</name><Point><coordinates>-3.72338,40.40341,0</coordinates></Point></Placemark><Placemark><name>P070 BBS ES Túneles M-30 - Madrid (Madrid) - jenito</name><Point><coordinates>-3.66655,40.40381,0</coordinates></Point></Placemark><Placemark><name>P070 BBS ES Túneles M-30 - Madrid (Madrid) - guaje47</name><Point><coordinates>-3.65586,40.4057,0</coordinates></Point></Placemark><Placemark><name>P070 BBS ES Túneles M-30 - Madrid (Madrid) - FerScrich</name><Point><coordinates>-3.72232,40.40461,0</coordinates></Point></Placemark><Placemark><name>P070 BBS ES Túneles M-30 - Madrid (Madrid) - charlie2323</name><Point><coordinates>-3.72269,40.41031,0</coordinates></Point></Placemark><Placemark><name>P070 BBS ES A-5 PK-2.6 - Madrid D (Madrid) - Ache</name><Point><coordinates>-3.73955,40.41043,0</coordinates></Point></Placemark><Placemark><name>P070 BBS ES Túneles M-30 - Madrid @ (Madrid) - guaje47</name><Point><coordinates>-3.72643,40.4224,0</coordinates></Point></Placemark><Placemark><name>P060 BBS ES M-111 - Madrid A @ (Madrid) - jenito</name><Point><coordinates>-3.58015,40.48397,0</coordinates></Point></Placemark><Placemark><name>P060 BBS ES M-111 - Madrid D @ (Madrid) - jose-m-m</name><Point><coordinates>-3.55436,40.49456,0</coordinates></Point></Placemark><Placemark><name>P060 BBS ES B-10 PK-10.8 - Barcelona A @ (Barcelona) - Ache</name><Point><coordinates>2.18742,41.38281,0</coordinates></Point></Placemark><Placemark><name>P060 BBS ES Gran Via de Carles III - Barcelona (Barcelona) - caceres222</name><Point><coordinates>2.1273,41.38741,0</coordinates></Point></Placemark><Placemark><name>P080 BBS ES B-20 PK-5.2 - Esplugues de Llobregat D (Barcelona) - Ache</name><Point><coordinates>2.10729,41.38917,0</coordinates></Point></Placemark><Placemark><name>P080 BBS ES Carrer Dalt B-20 - Barcelona (Barcelona) - Ache</name><Point><coordinates>2.10951,41.39306,0</coordinates></Point></Placemark><Placemark><name>P050 BBS ES Ronda General Mitre 41 - Barcelona @ (Barcelona) - Ache</name><Point><coordinates>2.13383,41.3958,0</coordinates></Point></Placemark><Placemark><name>P080 BBS ES B-10 PK-7.1 - Barcelona D @ (Barcelona) - combo</name><Point><coordinates>2.20586,41.39495,0</coordinates></Point></Placemark><Placemark><name>P080 BBS ES B-20 PK-7.4 - Barcelona A @ (Barcelona) - FerScrich</name><Point><coordinates>2.11583,41.4028,0</coordinates></Point></Placemark><Placemark><name>P080 BBS ES B-20 PK-7.5 - Barcelona D @ (Barcelona) - Ache</name><Point><coordinates>2.12039,41.40609,0</coordinates></Point></Placemark><Placemark><name>P060 BBS ES B-20 PK-14.4 - Barcelona A @ (Barcelona) - Ache</name><Point><coordinates>2.16285,41.44017,0</coordinates></Point></Placemark><Placemark><name>P080 BBS ES B-20 PK-14.4 - Barcelona @ (Barcelona) - Ache</name><Point><coordinates>2.17519,41.44492,0</coordinates></Point></Placemark><Placemark><name>P060 BBS ES B-20 PK-15.1 - Barcelona @ (Barcelona) - Ache</name><Point><coordinates>2.17612,41.44506,0</coordinates></Point></Placemark><Placemark><name>P080 BBS ES B-20 PK-15.1 - Barcelona @ (Barcelona) - Ache</name><Point><coordinates>2.18611,41.44692,0</coordinates></Point></Placemark><Placemark><name>P080 BBS ES A-381 PK-74.7 - Los Barrios A (Cádiz) - Radardroid</name><Point><coordinates>-5.573,36.22963,0</coordinates></Point></Placemark><Placemark><name>P080 BBS ES A-381 PK-37.3 - Alcalá de Los Gazules D (Cádiz) - Radardroid</name><Point><coordinates>-5.79025,36.46833,0</coordinates></Point></Placemark><Placemark><name>P080 BBS ES A-70 PK-2.5 - Mutxamel D @ (Alicante) - Ache</name><Point><coordinates>-0.44823,38.4028,0</coordinates></Point></Placemark><Placemark><name>P080 BBS ES A-70 PK-4.4 - San Juan A @ (Alicante) - Ache</name><Point><coordinates>-0.43281,38.41408,0</coordinates></Point></Placemark><Placemark><name>P120 BBS ES CV-40 PK-8.4 - Canals D (Valencia) - ARIAD</name><Point><coordinates>-0.57254,38.92174,0</coordinates></Point></Placemark><Placemark><name>P100 BBS ES C-25 PK-213.5 - Arbúcies D (Gerona) - Ache</name><Point><coordinates>2.52122,41.8501,0</coordinates></Point></Placemark><Placemark><name>P080 BBS ES VG-20 PK-0.7 - Vigo D (Pontevedra) - Ache</name><Point><coordinates>-8.75649,42.21755,0</coordinates></Point></Placemark><Placemark><name>P050 BBS ES Av. da Beiramar - Vigo (Pontevedra) - Ache</name><Point><coordinates>-8.72959,42.23762,0</coordinates></Point></Placemark><Placemark><name>P050 BBS ES Estrada Porto - Vigo (Pontevedra) - caceres222</name><Point><coordinates>-8.71251,42.24006,0</coordinates></Point></Placemark><Placemark><name>P060 BBS AD Túnel de la Tàpia - Sant Julià de Lòria (Andorra) - Ache</name><Point><coordinates>1.49038,42.4741,0</coordinates></Point></Placemark><Placemark><name>P080 BBS ES N-330 Dirección Francia (Huesca) - FerScrich</name><Point><coordinates>-0.51774,42.74474,0</coordinates></Point></Placemark><Placemark><name>P080 BBS ES N-134 - Urdos (Huesca) - caceres222</name><Point><coordinates>-0.56062,42.81622,0</coordinates></Point></Placemark><Placemark><name>P050 BBS ES SC-20 PK-6.4 - Santiago de Compostela D (La Coruña) - caceres222</name><Point><coordinates>-8.54946,42.86963,0</coordinates></Point></Placemark><Placemark><name>P050 BBS ES SC-20 PK-6.3 Santiago de Compostela A (La Coruña) - caceres222</name><Point><coordinates>-8.54277,42.87229,0</coordinates></Point></Placemark><Placemark><name>P100 BBS ES A-15 PK-148.8 - Berastegui A (Guipúzcoa) - wyxchari</name><Point><coordinates>-2.00466,43.15442,0</coordinates></Point></Placemark><Placemark><name>P080 BBS ES A-8 PK-112.3 - Basauri A @ (Vizcaya) - FerScrich</name><Point><coordinates>-2.89072,43.23162,0</coordinates></Point></Placemark><Placemark><name>P080 BBS ES A-8 PK-112.3 - Basauri D @ (Vizcaya) - FerScrich</name><Point><coordinates>-2.90741,43.23351,0</coordinates></Point></Placemark><Placemark><name>P080 BBS ES GI-20 PK-10.9 - Donostia A (Guipúzcoa) - FerScrich</name><Point><coordinates>-1.98952,43.29771,0</coordinates></Point></Placemark></Folder></kml>
