<?xml version="1.0" encoding="ISO-8859-1"?>
<kml xmlns="http://earth.google.com/kml/2.0"><Folder><Placemark><name>F090 BBS ES TF-66 PK-9 - Arona A/D (Sta. Cruz de Tenerife) - wyxchari</name><Point><coordinates>-16.67971,28.0231,0</coordinates></Point></Placemark><Placemark><name>F090 BBS ES TF-652 PK-2.9 - Guargacho A/D (Sta. Cruz de Tenerife) - Forocoches</name><Point><coordinates>-16.64495,28.03376,0</coordinates></Point></Placemark><Placemark><name>F090 BBS ES TF-65 PK-11.3 - Los Abrigos A/D (Sta. Cruz de Tenerife) - wyxchari</name><Point><coordinates>-16.59832,28.03432,0</coordinates></Point></Placemark><Placemark><name>F090 BBS ES FV-2 PK-0.6 - Puerto del Rosario A (Las Palmas) - FerScrich</name><Point><coordinates>-13.86892,28.48078,0</coordinates></Point></Placemark><Placemark><name>F090 BBS ES FV-2 PK-1.3 - Puerto del Rosario D (Las Palmas) - FerScrich</name><Point><coordinates>-13.86836,28.47461,0</coordinates></Point></Placemark><Placemark><name>F090 BBS PT N249-3 PK-4.5 - Porto Salvo A (Portugal) - Ache</name><Point><coordinates>-9.29637,38.72685,0</coordinates></Point></Placemark><Placemark><name>F090 BBS PT IC20 PK-1.9 - Pragal A @ (Portugal) - Ache</name><Point><coordinates>-9.18108,38.6638,0</coordinates></Point></Placemark><Placemark><name>F090 BBS PT IC17 PK-14.1 - Lisboa D (Portugal) - Ache</name><Point><coordinates>-9.16888,38.79207,0</coordinates></Point></Placemark><Placemark><name>F090 BBS PT IP7 PK-3.4 - Lisboa A (Portugal) - Ache</name><Point><coordinates>-9.15792,38.7781,0</coordinates></Point></Placemark><Placemark><name>F090 BBS PT IC17 PK-17.9 - Camarate A (Portugal) - Ache</name><Point><coordinates>-9.1297,38.80015,0</coordinates></Point></Placemark><Placemark><name>F090 BBS PT IC17 PK-19.1 - Loures D (Portugal) - Ache</name><Point><coordinates>-9.11628,38.79376,0</coordinates></Point></Placemark><Placemark><name>F090 BBS PT N118 PK-27.2 - Samora Correia A/D (Portugal) - Olaloka</name><Point><coordinates>-8.88132,38.88174,0</coordinates></Point></Placemark><Placemark><name>F090 BBS PT N118 PK-17.4 - Samora Correia A/D (Portugal) - Olaloka</name><Point><coordinates>-8.88075,38.79327,0</coordinates></Point></Placemark><Placemark><name>F090 BBS PT N260 PK-13.4 - Baleizão A/D (Portugal) - Ache</name><Point><coordinates>-7.72958,38.02265,0</coordinates></Point></Placemark><Placemark><name>F090 BBS ES A-494 PK-13 - Palos de la Fra A (Huelva) - Anonimo</name><Point><coordinates>-6.87864,37.23417,0</coordinates></Point></Placemark><Placemark><name>F090 BBS ES N-435 PK-151.5 - Almonaster la Real A (Huelva) - Anonimo</name><Point><coordinates>-6.71895,37.79783,0</coordinates></Point></Placemark><Placemark><name>F090 BBS ES N-435 PK-180.1 - Zalamea la Real A (Huelva) - Anonimo</name><Point><coordinates>-6.69224,37.61879,0</coordinates></Point></Placemark><Placemark><name>F090 BBS ES N-435 PK-178.3 D - Zalamea la Real (Huelva) - Ache</name><Point><coordinates>-6.67423,37.62349,0</coordinates></Point></Placemark><Placemark><name>F090 BBS ES N-435 PK-173.3 - Zalamea la Real A/D (Huelva) - Ache</name><Point><coordinates>-6.65881,37.65922,0</coordinates></Point></Placemark><Placemark><name>F090 BBS ES A-483 PK-37.6 - Almonte D (Huelva) - wyxchari</name><Point><coordinates>-6.54887,37.04461,0</coordinates></Point></Placemark><Placemark><name>F090 BBS PT IC2 PK-548.7 - Santa Susana A/D (Portugal) - Ache</name><Point><coordinates>-8.61113,38.51181,0</coordinates></Point></Placemark><Placemark><name>F090 BBS PT N1 PK-183.2 - Antanhol D (Portugal) - Tufão</name><Point><coordinates>-8.45546,40.16916,0</coordinates></Point></Placemark><Placemark><name>F090 BBS PT N251 PK-39.3 - Coruche A/D (Portugal) - Master-Zeus</name><Point><coordinates>-8.45316,38.9758,0</coordinates></Point></Placemark><Placemark><name>F090 BBS PT N114 PK-169.9 - São Sebastião da Giesteira A/D (Portugal) - Ache</name><Point><coordinates>-8.10449,38.62637,0</coordinates></Point></Placemark><Placemark><name>F090 BBS ES N-640 PK-235.4 - Vilagarcía de Arousa A (Pontevedra) - Pesado</name><Point><coordinates>-8.74144,42.57094,0</coordinates></Point></Placemark><Placemark><name>F090 BBS ES CG-1.5 PK-16 - Rois D (La Coruña) - Ache</name><Point><coordinates>-8.73751,42.83512,0</coordinates></Point></Placemark><Placemark><name>F090 BBS ES VG-4.4 PK-7 - Marín A (Pontevedra) - clacoes</name><Point><coordinates>-8.68836,42.37322,0</coordinates></Point></Placemark><Placemark><name>F090 BBS ES N-550 PK-108.9 - Barro A (Pontevedra) - Forocoches</name><Point><coordinates>-8.6428,42.51241,0</coordinates></Point></Placemark><Placemark><name>F090 BBS PT N103 PK-22.9 - Santa Eugénia de Rio Covo D (Portugal) - Ache</name><Point><coordinates>-8.60638,41.51978,0</coordinates></Point></Placemark><Placemark><name>F090 BBS PT N206 PK-46.1 -  São Romão de Arões D (Portugal) - Forocoches</name><Point><coordinates>-8.22279,41.45687,0</coordinates></Point></Placemark><Placemark><name>F090 BBS ES N-541 PK-29.4 - Godas do Rio A (Orense) - PacoPapa</name><Point><coordinates>-8.10475,42.42544,0</coordinates></Point></Placemark><Placemark><name>F090 BBS ES OU-540 PK-6.5 - Bentraces A (Orense) - guaje47</name><Point><coordinates>-7.89671,42.28749,0</coordinates></Point></Placemark><Placemark><name>F090 BBS ES N-525 PK-230.7 - San Cibrao das Viñas D (Orense) - PacoPapa</name><Point><coordinates>-7.8581,42.28458,0</coordinates></Point></Placemark><Placemark><name>F090 BBS ES N-120 PK-542 - Lugo A (Lugo) - caceres222</name><Point><coordinates>-7.69655,42.49225,0</coordinates></Point></Placemark><Placemark><name>F090 BBS ES LU-862 PK-74.2 - Vicedo D (Lugo) - wyxchari</name><Point><coordinates>-7.65133,43.72971,0</coordinates></Point></Placemark><Placemark><name>F090 BBS PT N4 PK-155.6 - Borba A/D (Portugal) - Ache</name><Point><coordinates>-7.47701,38.81413,0</coordinates></Point></Placemark><Placemark><name>F090 BBS ES N-521 PK-91.2 - Herreruela A/D (Cáceres) - Koala26</name><Point><coordinates>-6.84056,39.42966,0</coordinates></Point></Placemark><Placemark><name>F090 BBS ES N-432 PK-33.3 - Nogales D (Badajoz) - Ache</name><Point><coordinates>-6.72199,38.65518,0</coordinates></Point></Placemark><Placemark><name>F090 BBS ES EX-108 PK-90.8 - Coria D @ (Cáceres) - FerScrich</name><Point><coordinates>-6.54913,39.9994,0</coordinates></Point></Placemark><Placemark><name>F090 BBS ES EX-109 PK-15 - Torrejoncillo D (Cáceres) - FerScrich</name><Point><coordinates>-6.47896,39.90803,0</coordinates></Point></Placemark><Placemark><name>F090 BBS ES N-521 PK-53.9 - Cáceres A (Cáceres) - tencas</name><Point><coordinates>-6.44707,39.45735,0</coordinates></Point></Placemark><Placemark><name>F090 BBS ES N-523 PK-8.6 - Cáceres A/D (Cáceres) - Ache</name><Point><coordinates>-6.43454,39.38866,0</coordinates></Point></Placemark><Placemark><name>F090 BBS ES CG-2.2 PK-35.4 - O Incio A/D (Lugo) - Ache</name><Point><coordinates>-7.46218,42.68662,0</coordinates></Point></Placemark><Placemark><name>F090 BBS ES N-120 PK-459 - Vilamartín de Valdeorras A (Orense) - PacoPapa</name><Point><coordinates>-7.03444,42.41165,0</coordinates></Point></Placemark><Placemark><name>Radares BBS www.laradiobbs.net Actualizacion: miércoles, 7 de mayo de 2025 a las 07:08 - Semana: 19</name><Point><coordinates>0,0,0</coordinates></Point></Placemark><Placemark><name>F090 BBS ES A-49 PK-0.7 - Tomares A (Sevilla) - Ache</name><Point><coordinates>-6.0345,37.38526,0</coordinates></Point></Placemark><Placemark><name>F090 BBS ES N-432 PK-111.7 - Llerena A (Badajoz) - FerScrich</name><Point><coordinates>-6.03326,38.25636,0</coordinates></Point></Placemark><Placemark><name>F090 BBS ES N-432 PK-142.5 - Azuaga D (Badajoz) - Ache</name><Point><coordinates>-5.70088,38.26073,0</coordinates></Point></Placemark><Placemark><name>F090 BBS ES A-394 PK-6.1 - El Arahal A/D (Sevilla) - Forocoches</name><Point><coordinates>-5.62866,37.22439,0</coordinates></Point></Placemark><Placemark><name>F090 BBS ES N-432 PK-219.5 - Espiel D (Córdoba) - FerScrich</name><Point><coordinates>-5.03244,38.18423,0</coordinates></Point></Placemark><Placemark><name>F090 BBS ES N-502 PK-380.5 - Alcaracejos D (Córdoba) - combo</name><Point><coordinates>-4.97755,38.25797,0</coordinates></Point></Placemark><Placemark><name>F090 BBS ES A-386 PK-11.3 - Sta.ella A (Córdoba) - FerScrich</name><Point><coordinates>-4.85271,37.5805,0</coordinates></Point></Placemark><Placemark><name>F090 BBS ES A-4 PK-415.2 - Córdoba A (Córdoba) - guaje47</name><Point><coordinates>-4.82161,37.77641,0</coordinates></Point></Placemark><Placemark><name>F090 BBS ES N-432 PK-245.3 - Obejo A (Córdoba) - Ache</name><Point><coordinates>-4.81778,38.0581,0</coordinates></Point></Placemark><Placemark><name>F090 BBS ES N-432 PK-260 - Cordoba A (Córdoba) - Forocoches</name><Point><coordinates>-4.7665,37.95795,0</coordinates></Point></Placemark><Placemark><name>F090 BBS ES N-432 PK-264 - Córdoba A (Córdoba) - Ache</name><Point><coordinates>-4.76634,37.92688,0</coordinates></Point></Placemark><Placemark><name>F090 BBS ES A-357 PK-38.9 - Pizarra A (Málaga) - FerScrich</name><Point><coordinates>-4.74051,36.77438,0</coordinates></Point></Placemark><Placemark><name>F090 BBS ES N-432 PK-302.5 - Espejo A/D (Córdoba) - Forocoches</name><Point><coordinates>-4.59659,37.68993,0</coordinates></Point></Placemark><Placemark><name>F090 BBS ES A-316 PK-92 - Alcaudete D (Jaén) - wyxchari</name><Point><coordinates>-4.11866,37.62666,0</coordinates></Point></Placemark><Placemark><name>F090 BBS ES N-432 PK-384.7 - Alcalá la Real A/D (Jaén) - wyxchari</name><Point><coordinates>-3.94837,37.46003,0</coordinates></Point></Placemark><Placemark><name>F090 BBS ES A-302 PK-13.2 - Jabalquinto A (Jaén) - guaje47</name><Point><coordinates>-3.77265,38.02621,0</coordinates></Point></Placemark><Placemark><name>F090 BBS ES N-110 PK-384.3 - Casas del Castañar A (Cáceres) - FerScrich</name><Point><coordinates>-5.91253,40.1273,0</coordinates></Point></Placemark><Placemark><name>F090 BBS ES EX-206 PK-92.3 - Don Benito A (Badajoz) - combo</name><Point><coordinates>-5.91043,38.96043,0</coordinates></Point></Placemark><Placemark><name>F090 BBS ES EX-203 PK-22.3 - Tejeda de Tiétar A (Cáceres) - FerScrich</name><Point><coordinates>-5.84879,40.02524,0</coordinates></Point></Placemark><Placemark><name>F090 BBS ES N-430 PK-113.1 - Villanueva de la Serena A (Badajoz) - Ache</name><Point><coordinates>-5.76739,39.02949,0</coordinates></Point></Placemark><Placemark><name>F090 BBS ES N-630 PK-364.9 - Beleña A (Salamanca) - FerScrich</name><Point><coordinates>-5.62946,40.75638,0</coordinates></Point></Placemark><Placemark><name>F090 BBS ES N-630 PK-373.9 - La Maya D (Salamanca) - FerScrich</name><Point><coordinates>-5.62094,40.68303,0</coordinates></Point></Placemark><Placemark><name>F090 BBS ES EX-119 PK-2.8 - Navalmoral de la Mata D (Cáceres) - FerScrich</name><Point><coordinates>-5.5611,39.91683,0</coordinates></Point></Placemark><Placemark><name>F090 BBS ES N-432 PK-194.4 - Peñarroya-Pueblonuevo D (Córdoba) - FerScrich</name><Point><coordinates>-5.24567,38.29728,0</coordinates></Point></Placemark><Placemark><name>F090 BBS ES AS-16 PK-9.5 - Pravia A (Asturias) - guaje47</name><Point><coordinates>-6.1113,43.47229,0</coordinates></Point></Placemark><Placemark><name>F090 BBS ES N-632 PK-100.4 - Avilés A (Asturias) - guaje47</name><Point><coordinates>-5.94287,43.55428,0</coordinates></Point></Placemark><Placemark><name>F090 BBS ES N-632 PK-98.8 - Avilés D (Asturias) - guaje47</name><Point><coordinates>-5.92923,43.54417,0</coordinates></Point></Placemark><Placemark><name>F090 BBS ES A-66 PK-35.3 - Soto de Ribera D (Asturias) - guaje47</name><Point><coordinates>-5.872,43.32278,0</coordinates></Point></Placemark><Placemark><name>F090 BBS ES AP-66 PK-66.7 - Lena D (Asturias) - Ache</name><Point><coordinates>-5.81915,43.09952,0</coordinates></Point></Placemark><Placemark><name>F090 BBS ES N-630 PK-261.9 - Montamarta D (Zamora) - Ache</name><Point><coordinates>-5.79786,41.63378,0</coordinates></Point></Placemark><Placemark><name>F090 BBS ES GI-10 PK-0.3 - Gijón A (Asturias) - Forocoches</name><Point><coordinates>-5.70266,43.52558,0</coordinates></Point></Placemark><Placemark><name>F090 BBS ES N-120 PK-312.3 - Valverde de la Virgen A (León) - guaje47</name><Point><coordinates>-5.65715,42.57409,0</coordinates></Point></Placemark><Placemark><name>F090 BBS ES N-120 PK-311.5 - Valverde de la Virgen D (León) - Ache</name><Point><coordinates>-5.64941,42.57704,0</coordinates></Point></Placemark><Placemark><name>F090 BBS ES A-64 PK-8.7 - Sariego D (Asturias) - guaje47</name><Point><coordinates>-5.55412,43.41592,0</coordinates></Point></Placemark><Placemark><name>F090 BBS ES A-8 PK-355.9 - Villaviciosa D (Asturias) - Ache</name><Point><coordinates>-5.44354,43.48709,0</coordinates></Point></Placemark><Placemark><name>F090 BBS ES N-110 PK-260 - La Colilla A (Ávila) - FerScrich</name><Point><coordinates>-4.74305,40.64091,0</coordinates></Point></Placemark><Placemark><name>F090 BBS ES N-601 PK-113.3 - Martín Muñoz de las Posadas A (Segovia) - FerScrich</name><Point><coordinates>-4.5944,40.98041,0</coordinates></Point></Placemark><Placemark><name>F090 BBS ES N-403 PK-89.4 - El Tiemblo A (Ávila) - FerScrich</name><Point><coordinates>-4.48806,40.40838,0</coordinates></Point></Placemark><Placemark><name>F090 BBS ES CL-505 PK-29.5 - Navalperal de Pinares A (Ávila) - FerScrich</name><Point><coordinates>-4.41541,40.58666,0</coordinates></Point></Placemark><Placemark><name>F090 BBS ES N-VI PK-71.3 - El Espinar D (Segovia) - guaje47</name><Point><coordinates>-4.28147,40.74674,0</coordinates></Point></Placemark><Placemark><name>F090 BBS ES N-110 PK-208 - Segovia A (Segovia) - Todopoi</name><Point><coordinates>-4.24545,40.85785,0</coordinates></Point></Placemark><Placemark><name>F090 BBS ES CM-4000 PK-17.1 - Albarreal de Tajo A (Toledo) - FerScrich</name><Point><coordinates>-4.22005,39.8769,0</coordinates></Point></Placemark><Placemark><name>F090 BBS ES CM-403 PK-89 - Picon A (Ciudad Real) - guaje47</name><Point><coordinates>-4.04997,39.04531,0</coordinates></Point></Placemark><Placemark><name>F090 BBS ES N-401 PK-82.5 - Burguillos de Toledo A/D (Toledo) - Forocoches</name><Point><coordinates>-3.98594,39.78777,0</coordinates></Point></Placemark><Placemark><name>F090 BBS ES M-513 PK-12.2 - Villaviciosa de Odon A (Madrid) - FerScrich</name><Point><coordinates>-3.94494,40.41481,0</coordinates></Point></Placemark><Placemark><name>F090 BBS ES A-6 PK-18.3 - Las Rozas D @ (Madrid) - jorgecouto</name><Point><coordinates>-3.86804,40.49213,0</coordinates></Point></Placemark><Placemark><name>F090 BBS ES N-401 PK-111.4 - Orgaz D (Toledo) - FerScrich</name><Point><coordinates>-3.85195,39.59239,0</coordinates></Point></Placemark><Placemark><name>F090 BBS ES A-5 PK-12.5 - Alcorcon D (Madrid) - FerScrich</name><Point><coordinates>-3.81821,40.35778,0</coordinates></Point></Placemark><Placemark><name>F090 BBS ES N-401 PK-148 - Urda A (Toledo) - FerScrich</name><Point><coordinates>-3.74969,39.2897,0</coordinates></Point></Placemark><Placemark><name>F090 BBS ES M-30 PK-25.7 - Madrid A (Madrid) - FerScrich</name><Point><coordinates>-3.74526,40.47439,0</coordinates></Point></Placemark><Placemark><name>F090 BBS ES N-401 PK-150.2 - Fuente el Fresno A (Ciudad Real) - FerScrich</name><Point><coordinates>-3.74455,39.2737,0</coordinates></Point></Placemark><Placemark><name>F090 BBS ES M-408 PK-3.3 - Parla D (Madrid) - Todopoi</name><Point><coordinates>-3.7391,40.24192,0</coordinates></Point></Placemark><Placemark><name>F090 BBS ES A-42 PK-13.6 - Getafe A (Madrid) - ruben-zin</name><Point><coordinates>-3.73901,40.30231,0</coordinates></Point></Placemark><Placemark><name>F090 BBS ES M-30 PK-27 - Madrid D (Madrid) - anchonyo</name><Point><coordinates>-3.73088,40.47279,0</coordinates></Point></Placemark><Placemark><name>F090 BBS ES N-400 PK-27.9 - Aranuez A/D (Madrid) - Ache</name><Point><coordinates>-3.70287,39.9569,0</coordinates></Point></Placemark><Placemark><name>F090 BBS ES CL-615 PK-77.9 - Pino del Río D (Palencia) - Ache</name><Point><coordinates>-4.79755,42.67118,0</coordinates></Point></Placemark><Placemark><name>F090 BBS ES CL-615 PK-72.1 - Saldaña A (Palencia) - Ache</name><Point><coordinates>-4.77063,42.62263,0</coordinates></Point></Placemark><Placemark><name>F090 BBS ES N-610 PK-12.7 - Villamartin de Campos A/D (Palencia) - Forocoches</name><Point><coordinates>-4.66538,42.01994,0</coordinates></Point></Placemark><Placemark><name>F090 BBS ES CL-602 PK-91.9 - Íscar D (Valladolid) - FerScrich</name><Point><coordinates>-4.53296,41.35043,0</coordinates></Point></Placemark><Placemark><name>F090 BBS ES P-900 PK-1.6 - Palencia A (Palencia) - FerScrich</name><Point><coordinates>-4.53149,41.98152,0</coordinates></Point></Placemark><Placemark><name>F090 BBS ES N-627 PK-67.1 - Fuencaliente de Lucio D (Burgos) - FerScrich</name><Point><coordinates>-4.15154,42.74207,0</coordinates></Point></Placemark><Placemark><name>F090 BBS ES N-122 PK-300.2 - Castrillo de Duero A/D (Valladolid) - Ache</name><Point><coordinates>-4.03604,41.6054,0</coordinates></Point></Placemark><Placemark><name>F090 BBS ES N-623 PK-87.2 - Cabañas de Virtus D (Burgos) - migueldas</name><Point><coordinates>-3.858,43.00704,0</coordinates></Point></Placemark><Placemark><name>F090 BBS ES GR-30 PK-8.7 - Maracena A (Granada) - FerScrich</name><Point><coordinates>-3.62757,37.20389,0</coordinates></Point></Placemark><Placemark><name>F090 BBS ES A-312 PK-35.9 - Navas de San Juan A (Jaén) - wyxchari</name><Point><coordinates>-3.3523,38.18215,0</coordinates></Point></Placemark><Placemark><name>F090 BBS ES N-340a PK-471.9 - Tabernas D (Almería) - guaje47</name><Point><coordinates>-2.38326,37.06454,0</coordinates></Point></Placemark><Placemark><name>F090 BBS ES N-341 PK-8.5 - Níjar A (Almería) - Radardroid</name><Point><coordinates>-1.99006,36.96601,0</coordinates></Point></Placemark><Placemark><name>F090 BBS ES M-30 PK-0.5 - Madrid A (Madrid) - jose-m-m</name><Point><coordinates>-3.67445,40.47935,0</coordinates></Point></Placemark><Placemark><name>F090 BBS ES M-30 PK-6.7 - Madrid A @ (Madrid) - guaje47</name><Point><coordinates>-3.66023,40.42617,0</coordinates></Point></Placemark><Placemark><name>F090 BBS ES M-30 PK-7.8 - Madrid D (Madrid) - jose-m-m</name><Point><coordinates>-3.65919,40.4166,0</coordinates></Point></Placemark><Placemark><name>F090 BBS ES CM-4124 PK-8 - Bolaños de Calatrava A (Ciudad Real) - sande</name><Point><coordinates>-3.63349,38.9018,0</coordinates></Point></Placemark><Placemark><name>F090 BBS ES A-2 PK-15.9 - San Fernando de Henares D @ (Madrid) - yosoytylerdurden</name><Point><coordinates>-3.52826,40.44799,0</coordinates></Point></Placemark><Placemark><name>F090 BBS ES CM-4124 PK-22 - Manzanares D (Ciudad Real) - sande</name><Point><coordinates>-3.50776,38.96183,0</coordinates></Point></Placemark><Placemark><name>F090 BBS ES M-300 PK-31.3 - Alcalá de Henares D (Madrid) - Forocoches</name><Point><coordinates>-3.42457,40.46791,0</coordinates></Point></Placemark><Placemark><name>F090 BBS ES N-320 PK-310.8 - Galapagos D (Guadalajara) - trotapinares</name><Point><coordinates>-3.39034,40.68862,0</coordinates></Point></Placemark><Placemark><name>F090 BBS ES N-301 PK-83.4 - Villatobas D (Toledo) - FerScrich</name><Point><coordinates>-3.30043,39.86958,0</coordinates></Point></Placemark><Placemark><name>F090 BBS ES CM-101 PK-4.8 - Marchamalo D (Guadalajara) - wyxchari</name><Point><coordinates>-3.1733,40.68648,0</coordinates></Point></Placemark><Placemark><name>F090 BBS ES CM-410 PK-107.1- La Puebla de Almuradiel D (Toledo) - Ache</name><Point><coordinates>-3.08959,39.59566,0</coordinates></Point></Placemark><Placemark><name>F090 BBS ES CM-200 PK-25.3 - Fuente de Pedro Naharro A (Cuenca) - FerScrich</name><Point><coordinates>-3.01759,39.9166,0</coordinates></Point></Placemark><Placemark><name>F090 BBS ES N-430 PK-404.8 - Alhambra A (Ciudad Real) - guaje47</name><Point><coordinates>-2.95634,38.91032,0</coordinates></Point></Placemark><Placemark><name>F090 BBS ES N-301 PK-132.5 - El Toboso D (Toledo) - Ache</name><Point><coordinates>-2.94565,39.53883,0</coordinates></Point></Placemark><Placemark><name>F090 BBS ES N-320 PK-241.9 Peñalver A/D (Guadalajara) - turuz</name><Point><coordinates>-2.89842,40.55851,0</coordinates></Point></Placemark><Placemark><name>F090 BBS ES N-322 PK-233.1 - Génave A/D (Jaén) - Forocoches</name><Point><coordinates>-2.79612,38.42397,0</coordinates></Point></Placemark><Placemark><name>F090 BBS ES N-420 PK-339.2 - Belmonte A/D (Cuenca) - Ache</name><Point><coordinates>-2.72053,39.55702,0</coordinates></Point></Placemark><Placemark><name>F090 BBS ES CM-1101 PK-12.5 - Mandayona D (Guadalajara) - guaje47</name><Point><coordinates>-2.71112,40.99529,0</coordinates></Point></Placemark><Placemark><name>F090 BBS ES N-310 PK-126.3 - Villarrobledo A (Albacete) - FerScrich</name><Point><coordinates>-2.65926,39.23323,0</coordinates></Point></Placemark><Placemark><name>F090 BBS ES N-122 PK-264.4 - Fresnillo de las Dueñas A (Burgos) - FerScrich</name><Point><coordinates>-3.63436,41.64517,0</coordinates></Point></Placemark><Placemark><name>F090 BBS ES N-122 PK-262.2 -  Fresnillo de las Dueñas A (Burgos) - Forocoches</name><Point><coordinates>-3.60857,41.64001,0</coordinates></Point></Placemark><Placemark><name>F090 BBS ES CL-629 PK-68.3 - Villarcayo de Merindad A (Burgos) - FerScrich</name><Point><coordinates>-3.54119,42.97548,0</coordinates></Point></Placemark><Placemark><name>F090 BBS ES CL-629 PK-75 - Baranda D (Burgos) - FerScrich</name><Point><coordinates>-3.50443,43.02668,0</coordinates></Point></Placemark><Placemark><name>F090 BBS ES N-629 PK-28.8 - Medina de Pomar A (Burgos) - wyxchari</name><Point><coordinates>-3.48108,42.97586,0</coordinates></Point></Placemark><Placemark><name>F090 BBS ES N-110 PK-113.2 - Riaza A (Segovia) - novato01</name><Point><coordinates>-3.47794,41.31019,0</coordinates></Point></Placemark><Placemark><name>F090 BBS ES CL-629 PK-87.5 - Valle de Mena A (Burgos) - FerScrich</name><Point><coordinates>-3.40639,43.09575,0</coordinates></Point></Placemark><Placemark><name>F090 BBS ES N-I PK-271.7 - Alcocero de Mola A (Burgos) - FerScrich</name><Point><coordinates>-3.36666,42.49121,0</coordinates></Point></Placemark><Placemark><name>F090 BBS ES CL-629 PK-99.5 - Villasana de Mena D (Burgos) - FerScrich</name><Point><coordinates>-3.27607,43.09762,0</coordinates></Point></Placemark><Placemark><name>F090 BBS ES N-I PK-301 - Pancorbo A (Burgos) - Ache</name><Point><coordinates>-3.12585,42.62876,0</coordinates></Point></Placemark><Placemark><name>F090 BBS ES N-234 PK-406.8 - San Leonardo de Yagüe A (Soria) - Forocoches</name><Point><coordinates>-3.09657,41.84065,0</coordinates></Point></Placemark><Placemark><name>F090 BBS ES N-122 PK-189.8 - Calatañazor A/D (Soria) - Forocoches</name><Point><coordinates>-2.82956,41.68512,0</coordinates></Point></Placemark><Placemark><name>F090 BBS ES N-232 PK-441.8 - Briones A (La Rioja) - FerScrich</name><Point><coordinates>-2.77722,42.5383,0</coordinates></Point></Placemark><Placemark><name>F090 BBS ES N-122 PK-171.6 - Villaciervos A (Soria) - FerScrich</name><Point><coordinates>-2.63906,41.75765,0</coordinates></Point></Placemark><Placemark><name>F090 BBS ES A-124 PK-68.6 - Laguardia D @ (Álava) - guaje47</name><Point><coordinates>-2.54491,42.5327,0</coordinates></Point></Placemark><Placemark><name>F090 BBS ES A-124 PK-68.8 - Laguardia A @ (Álava) - wyxchari</name><Point><coordinates>-2.54369,42.53179,0</coordinates></Point></Placemark><Placemark><name>F090 BBS ES N-111 PK-317.4 - Lardero A (La Rioja) - FerScrich</name><Point><coordinates>-2.47109,42.39914,0</coordinates></Point></Placemark><Placemark><name>F090 BBS ES N-111 PK-236.6 - Fuentecantos D (Soria) - FerScrich</name><Point><coordinates>-2.4528,41.8441,0</coordinates></Point></Placemark><Placemark><name>F090 BBS ES N-322 PK-316 - Alcaraz A (Albacete) - FerScrich</name><Point><coordinates>-2.22969,38.84627,0</coordinates></Point></Placemark><Placemark><name>F090 BBS ES N-430 PK-484.5 - Barrax A (Albacete) - FerScrich</name><Point><coordinates>-2.21313,39.0438,0</coordinates></Point></Placemark><Placemark><name>F090 BBS ES N-322 PK-327.3 - Balazote D (Albacete) - FerScrich</name><Point><coordinates>-2.1394,38.88234,0</coordinates></Point></Placemark><Placemark><name>F090 BBS ES N-310 PK-191.5 - Pozo Rubielos de la Mancha D (Cuenca) - FerScrich</name><Point><coordinates>-2.02458,39.44359,0</coordinates></Point></Placemark><Placemark><name>F090 BBS ES CM-220 PK-92.4 - Almodovar del Pinar D (Cuenca) - FerScrich</name><Point><coordinates>-1.90596,39.7298,0</coordinates></Point></Placemark><Placemark><name>F090 BBS ES N-420 PK-465.3 - Cañada del Hoyo A/D (Cuenca) - Ache</name><Point><coordinates>-1.86693,39.937,0</coordinates></Point></Placemark><Placemark><name>F090 BBS ES N-322 PK-367.1 - Albacete A/D (Albacete) - Ache</name><Point><coordinates>-1.80018,39.09705,0</coordinates></Point></Placemark><Placemark><name>F090 BBS ES CM-3201 PK-5.2 - Minglanilla A/D (Cuenca) - Ache</name><Point><coordinates>-1.61389,39.48725,0</coordinates></Point></Placemark><Placemark><name>F090 BBS ES RM-714 PK-8.9 - Jumilla A (Murcia) - FerScrich</name><Point><coordinates>-1.39482,38.40769,0</coordinates></Point></Placemark><Placemark><name>F090 BBS ES N-122 PK-142.3 - Renieblas A (Soria) - FerScrich</name><Point><coordinates>-2.33668,41.76382,0</coordinates></Point></Placemark><Placemark><name>F090 BBS ES N-232 PK-392.6 - Agoncillo D @ (La Rioja) - FerScrich</name><Point><coordinates>-2.27523,42.42854,0</coordinates></Point></Placemark><Placemark><name>F090 BBS ES N-122 PK-132.7 - Aracón A/D (Soria) - Ache</name><Point><coordinates>-2.22683,41.77695,0</coordinates></Point></Placemark><Placemark><name>F090 BBS ES CL-101 PK-32.3 - Jaray D (Soria) - FerScrich</name><Point><coordinates>-2.12919,41.68,0</coordinates></Point></Placemark><Placemark><name>F090 BBS ES A-121 PK-2.2 - Alberite de San Juan A (Zaragoza) - jose-m-m</name><Point><coordinates>-1.47069,41.81336,0</coordinates></Point></Placemark><Placemark><name>F090 BBS ES A-220 PK-1.6 - La Almunia de Doña Godina A (Zaragoza) - jose-m-m</name><Point><coordinates>-1.36501,41.46662,0</coordinates></Point></Placemark><Placemark><name>F090 BBS ES A-220 PK-9.4 - Almonacid de la Sierra A (Zaragoza) - wyxchari</name><Point><coordinates>-1.306,41.41291,0</coordinates></Point></Placemark><Placemark><name>F090 BBS ES A-127 PK-22.9 - Tauste D (Zaragoza) - jose-m-m</name><Point><coordinates>-1.21907,41.99352,0</coordinates></Point></Placemark><Placemark><name>F090 BBS ES N-330 PK-456.3 - Longares D (Zaragoza) - jose-m-m</name><Point><coordinates>-1.18155,41.38758,0</coordinates></Point></Placemark><Placemark><name>F090 BBS ES A-68 PK-263.1 - Alagón A (Zaragoza) - Forocoches</name><Point><coordinates>-1.12298,41.7627,0</coordinates></Point></Placemark><Placemark><name>F090 BBS ES N-340 PK-694.8 - Cox D (Alicante) - FerScrich</name><Point><coordinates>-0.91134,38.15424,0</coordinates></Point></Placemark><Placemark><name>F090 BBS ES N-332 PK-56.3 - Torrevieja A/D (Alicante) - novato01</name><Point><coordinates>-0.69712,37.97572,0</coordinates></Point></Placemark><Placemark><name>F090 BBS ES N-420 PK-624.9 - Fuentes Calientes D (Teruel) - wyxchari</name><Point><coordinates>-0.956,40.68196,0</coordinates></Point></Placemark><Placemark><name>F090 BBS ES N-344 PK-126.6 - La Font de la Figuera A (Valencia) - Ache</name><Point><coordinates>-0.89109,38.78386,0</coordinates></Point></Placemark><Placemark><name>F090 BBS ES CV-60 PK-8.2 - Montaverner D (Valencia) - guaje47</name><Point><coordinates>-0.48505,38.89402,0</coordinates></Point></Placemark><Placemark><name>F090 BBS ES CV-50 PK-14.8 - Alzira A (Valencia) - guaje47</name><Point><coordinates>-0.38993,39.11,0</coordinates></Point></Placemark><Placemark><name>F090 BBS ES N-225 PK-5.1 - Alfara de la Baronía A (Valencia) - Ache</name><Point><coordinates>-0.34077,39.7694,0</coordinates></Point></Placemark><Placemark><name>F090 BBS ES N-211 PK-228.2 - Calanda D (Teruel) - antonio2004</name><Point><coordinates>-0.22798,40.95329,0</coordinates></Point></Placemark><Placemark><name>F090 BBS ES N-332 PK-232.2 - Xeraco A (Valencia) - chequebo</name><Point><coordinates>-0.22259,39.04106,0</coordinates></Point></Placemark><Placemark><name>F090 BBS ES N-332 PK-141 - Villajoyosa A/D (Alicante) - JCARPOL</name><Point><coordinates>-0.20166,38.52715,0</coordinates></Point></Placemark><Placemark><name>F090 BBS ES N-340 PK-960.9 - Alquerías del Niño Perdido A (Castellón) - FerScrich</name><Point><coordinates>-0.13129,39.88451,0</coordinates></Point></Placemark><Placemark><name>F090 BBS ES CV-18 PK-13.4 - Burriana A (Castellón) - FerScrich</name><Point><coordinates>-0.12387,39.87063,0</coordinates></Point></Placemark><Placemark><name>F090 BBS ES N-332 PK-204.5 - Denia D (Alicante) - Ache</name><Point><coordinates>-0.02691,38.87007,0</coordinates></Point></Placemark><Placemark><name>F090 BBS ES N-332 PK-203.2 - El Verger A @ (Alicante) - guaje47</name><Point><coordinates>-0.01635,38.86462,0</coordinates></Point></Placemark><Placemark><name>F090 BBS ES CV-10 PK-55.9 - Torre d'En Domènec A/D (Castellón) - Ache</name><Point><coordinates>0.07776,40.26048,0</coordinates></Point></Placemark><Placemark><name>F090 BBS ES A-68 PK-255.7 - Zaragoza A (Zaragoza) - Forocoches</name><Point><coordinates>-1.04777,41.72913,0</coordinates></Point></Placemark><Placemark><name>F090 BBS ES A-123 PK-7.9 - Zaragoza D (Zaragoza) - antonio2004</name><Point><coordinates>-0.80919,41.72973,0</coordinates></Point></Placemark><Placemark><name>F090 BBS ES N-II PK-362.7 - Pina de Ebro D (Zaragoza) - anchonyo</name><Point><coordinates>-0.47554,41.51219,0</coordinates></Point></Placemark><Placemark><name>F090 BBS ES N-232 PK-169.8 - La Puebla de Híjar D (Teruel) - antonio2004</name><Point><coordinates>-0.46726,41.21118,0</coordinates></Point></Placemark><Placemark><name>F090 BBS ES N-260 PK-516.1 - Sabiñanigo A @ (Huesca) - Ache</name><Point><coordinates>-0.35761,42.53891,0</coordinates></Point></Placemark><Placemark><name>F090 BBS ES N-232 PK-137.8 - Alcañiz D (Teruel) - FerScrich</name><Point><coordinates>-0.17623,41.05171,0</coordinates></Point></Placemark><Placemark><name>F090 BBS ES N-232 PK-128.9 - Alcañiz A (Teruel) - rafacf</name><Point><coordinates>-0.09432,41.01972,0</coordinates></Point></Placemark><Placemark><name>F090 BBS ES N-420 PK-777 - Calaceite D (Teruel) - rafacf</name><Point><coordinates>0.19931,41.0172,0</coordinates></Point></Placemark><Placemark><name>F090 BBS ES N-II PK-422.2 - Fraga A (Huesca) - anchonyo</name><Point><coordinates>0.20181,41.52014,0</coordinates></Point></Placemark><Placemark><name>F090 BBS ES N-238 PK-5 - Vinaroz A (Castellón) - FerScrich</name><Point><coordinates>0.44941,40.52273,0</coordinates></Point></Placemark><Placemark><name>F090 BBS ES C-12 PK-30.7 - Xerta D (Tarragona) - Ache</name><Point><coordinates>0.48817,40.91401,0</coordinates></Point></Placemark><Placemark><name>F090 BBS ES C-12 PK-14.3 - Tortosa A (Tarragona) - FerScrich</name><Point><coordinates>0.50356,40.7825,0</coordinates></Point></Placemark><Placemark><name>F090 BBS ES C-12 PK-21.4 - Tortosa A (Tarragona) - FerScrich</name><Point><coordinates>0.51464,40.84042,0</coordinates></Point></Placemark><Placemark><name>F090 BBS ES N-340 PK-1068.4 - Alcanar D (Tarragona) - FerScrich</name><Point><coordinates>0.56022,40.59942,0</coordinates></Point></Placemark><Placemark><name>F090 BBS ES N-340 PK-1084.30 - La Aldea A (Tarragona) - FerScrich</name><Point><coordinates>0.59376,40.73023,0</coordinates></Point></Placemark><Placemark><name>F090 BBS ES N-340 PK-1091.8 - Camarles A (Tarragona) - FerScrich</name><Point><coordinates>0.66005,40.7752,0</coordinates></Point></Placemark><Placemark><name>F090 BBS ES N-340 PK-1104.8 - El Perello D (Tarragona) - FerScrich</name><Point><coordinates>0.71582,40.8693,0</coordinates></Point></Placemark><Placemark><name>F090 BBS ES N-211 PK-319 - Torrente de Cinca D (Huesca) - antonio2004</name><Point><coordinates>0.33504,41.41525,0</coordinates></Point></Placemark><Placemark><name>F090 BBS ES N-240 PK-118.2 - Almacelles D (Lérida) - FerScrich</name><Point><coordinates>0.4092,41.75624,0</coordinates></Point></Placemark><Placemark><name>F090 BBS ES N-230 PK-48.3 - Estopiñán del Castillo A @ (Huesca) - FerScrich</name><Point><coordinates>0.48588,41.97478,0</coordinates></Point></Placemark><Placemark><name>F090 BBS ES N-IIa PK-453.5 - Alcarras A (Lérida) - impresora</name><Point><coordinates>0.5452,41.5725,0</coordinates></Point></Placemark><Placemark><name>F090 BBS ES N-230 PK-27.5 - Alfarras D (Lérida) - FerScrich</name><Point><coordinates>0.56883,41.8386,0</coordinates></Point></Placemark><Placemark><name>F090 BBS ES C-12 PK-120.3 - Sarroca de Lleida D (Lérida) - FerScrich</name><Point><coordinates>0.57694,41.45683,0</coordinates></Point></Placemark><Placemark><name>F090 BBS ES C-12 PK-65.7 - Mora la Nova A (Tarragona) - Ache</name><Point><coordinates>0.64141,41.11144,0</coordinates></Point></Placemark><Placemark><name>F090 BBS ES C-26 PK-8.45 - Algerri D (Lérida) - impresora</name><Point><coordinates>0.6439,41.81196,0</coordinates></Point></Placemark><Placemark><name>F090 BBS ES C-12 PK-144.95 - Lleida A (Lérida) - Ache</name><Point><coordinates>0.64767,41.63836,0</coordinates></Point></Placemark><Placemark><name>F090 BBS ES N-420 PK-825.5 - Mora la Nova D (Tarragona) - yoho</name><Point><coordinates>0.6567,41.09704,0</coordinates></Point></Placemark><Placemark><name>F090 BBS ES N-240 PK-80.5 - Torregrosa D (Lérida) - impresora</name><Point><coordinates>0.75355,41.57798,0</coordinates></Point></Placemark><Placemark><name>F090 BBS ES C-13 PK-27.9 - Vallfogona de Balaguer D (Lérida) - FerScrich</name><Point><coordinates>0.81288,41.76357,0</coordinates></Point></Placemark><Placemark><name>F090 BBS ES N-240 PK-71.9 - Juneda A (Lérida) - FerScrich</name><Point><coordinates>0.83524,41.53761,0</coordinates></Point></Placemark><Placemark><name>F090 BBS ES C-26 PK-30.6 - La Sentiu de Sió A (Lérida) - guaje47</name><Point><coordinates>0.86375,41.81012,0</coordinates></Point></Placemark><Placemark><name>F090 BBS ES N-230 PK-130.2 - Vilaller D (Lérida) - FerScrich</name><Point><coordinates>0.71034,42.45968,0</coordinates></Point></Placemark><Placemark><name>F090 BBS ES N-230 PK-186.7 - Bausen A (Lérida) - Ache</name><Point><coordinates>0.73339,42.84616,0</coordinates></Point></Placemark><Placemark><name>F090 BBS ES L-200 PK-1.7 - Mollerussa D (Lérida) - Ache</name><Point><coordinates>0.88572,41.61475,0</coordinates></Point></Placemark><Placemark><name>F090 BBS ES C-13 PK-89.7 - Talarn D (Lérida) - Ache</name><Point><coordinates>0.90735,42.18687,0</coordinates></Point></Placemark><Placemark><name>F090 BBS ES C-53 PK-135.4 - Bellcaire d'Urgell A (Lérida) - FerScrich</name><Point><coordinates>0.91474,41.75459,0</coordinates></Point></Placemark><Placemark><name>F090 BBS ES N-420 PK-856.9 - Riudecols A (Tarragona) - yoho</name><Point><coordinates>0.94748,41.17185,0</coordinates></Point></Placemark><Placemark><name>F090 BBS ES N-240 PK-53.2 - Vinaixa A (Lérida) - impresora</name><Point><coordinates>0.98609,41.4254,0</coordinates></Point></Placemark><Placemark><name>F090 BBS ES N-340 PK-1137.8 - Montroig A (Tarragona) - FerScrich</name><Point><coordinates>0.98923,41.04501,0</coordinates></Point></Placemark><Placemark><name>F090 BBS ES T-310 PK-9.3 - Montbrió del Camp D (Tarragona) - FerScrich</name><Point><coordinates>1.01253,41.12364,0</coordinates></Point></Placemark><Placemark><name>F090 BBS ES T-310 PK-2.8 - Ruidoms D (Tarragona) - Ache</name><Point><coordinates>1.07777,41.14351,0</coordinates></Point></Placemark><Placemark><name>F090 BBS ES C-37 PK-3.2 - Valls D (Tarragona) - FerScrich</name><Point><coordinates>1.2132,41.26869,0</coordinates></Point></Placemark><Placemark><name>F090 BBS ES C-14 PK-120.6 - Oliola D (Lérida) - Ache</name><Point><coordinates>1.22046,41.91827,0</coordinates></Point></Placemark><Placemark><name>F090 BBS ES L-310 PK-13.8 - Concabella A (Lérida) - Ache</name><Point><coordinates>1.23609,41.75249,0</coordinates></Point></Placemark><Placemark><name>F090 BBS ES C-14 PK-154.4 - Coll de Nargo A (Lérida) - Ache</name><Point><coordinates>1.31903,42.17038,0</coordinates></Point></Placemark><Placemark><name>F090 BBS ES C-14 PK-161.1 - Organya D (Lérida) - FerScrich</name><Point><coordinates>1.32761,42.20471,0</coordinates></Point></Placemark><Placemark><name>F090 BBS ES C-1412a PK-19.3 - Biosca D (Lérida) - impresora</name><Point><coordinates>1.36263,41.83091,0</coordinates></Point></Placemark><Placemark><name>F090 BBS ES C-26 PK-89.3 - Castellar de la Ribera D (Lérida) - Ache</name><Point><coordinates>1.37208,42.02403,0</coordinates></Point></Placemark><Placemark><name>F090 BBS ES N-340 PK-1176.2 - Torredembarra A/D (Tarragona) - FerScrich</name><Point><coordinates>1.3927,41.1587,0</coordinates></Point></Placemark><Placemark><name>F090 BBS ES N-260 PK-233.3 - Ribera de Urgellet D (Lérida) - FerScrich</name><Point><coordinates>1.40455,42.32966,0</coordinates></Point></Placemark><Placemark><name>F090 BBS ES C-1412a PK-39.9 - Calaf D (Barcelona) - impresora</name><Point><coordinates>1.5235,41.71947,0</coordinates></Point></Placemark><Placemark><name>F090 BBS ES C-1412a PK-53.24 - Copons A (Barcelona) - Ache</name><Point><coordinates>1.5256,41.62457,0</coordinates></Point></Placemark><Placemark><name>F090 BBS ES MA-1 PK-22.9 - Andratx D (Baleares) - Ache</name><Point><coordinates>2.45145,39.54753,0</coordinates></Point></Placemark><Placemark><name>F090 BBS ES TP-2125 PK-4.8 - Saifores A/D (Tarragona) - Ache</name><Point><coordinates>1.55238,41.26617,0</coordinates></Point></Placemark><Placemark><name>F090 BBS ES N-340 PK-1200.7 - LArboç A/D (Tarragona) - jose-m-m</name><Point><coordinates>1.61123,41.27637,0</coordinates></Point></Placemark><Placemark><name>F090 BBS ES C-55 PK-68.2 - Clariana de Cardener D (Lérida) - Ache</name><Point><coordinates>1.61949,41.93466,0</coordinates></Point></Placemark><Placemark><name>F090 BBS ES C-37z PK-71.45 - Odena D (Barcelona) - Ache</name><Point><coordinates>1.65773,41.62374,0</coordinates></Point></Placemark><Placemark><name>F090 BBS ES N-340 PK-1208.3 - Vilafranca del Penedès A (Barcelona) - wyxchari</name><Point><coordinates>1.66614,41.33295,0</coordinates></Point></Placemark><Placemark><name>F090 BBS ES C-244a PK-22.1 - Sant Quintí de Mediona D (Barcelona) - caceres222</name><Point><coordinates>1.67767,41.45643,0</coordinates></Point></Placemark><Placemark><name>F090 BBS ES C-55 PK-53.7 - Navas D (Barcelona) - impresora</name><Point><coordinates>1.71395,41.87292,0</coordinates></Point></Placemark><Placemark><name>F090 BBS ES BV-2113 PK-1.4 - Sant Pere de Ribes D (Barcelona) - caceres222</name><Point><coordinates>1.77204,41.2485,0</coordinates></Point></Placemark><Placemark><name>F090 BBS ES C-55 PK-39.1 - Sant Joan de Vilatorrada A (Barcelona) - caceres222</name><Point><coordinates>1.7888,41.77194,0</coordinates></Point></Placemark><Placemark><name>F090 BBS ES C-58 PK-38.15 - Monistrol de Montserrat D (Barcelona) - impresora</name><Point><coordinates>1.85925,41.62199,0</coordinates></Point></Placemark><Placemark><name>F090 BBS ES C-16 PK-113.6 - Guardiola de Berga D (Barcelona) - wyxchari</name><Point><coordinates>1.87242,42.22253,0</coordinates></Point></Placemark><Placemark><name>F090 BBS ES C-1413a PK-2.4 - El Papiol A (Barcelona) - caceres222</name><Point><coordinates>2.00163,41.43533,0</coordinates></Point></Placemark><Placemark><name>F090 BBS ES N-150 PK-15.6 - Terrassa A (Barcelona) - wyxchari</name><Point><coordinates>2.05195,41.55481,0</coordinates></Point></Placemark><Placemark><name>F090 BBS ES B-124 PK-4.7 - Castellar del Vallés A (Barcelona) - wyxchari</name><Point><coordinates>2.08954,41.58891,0</coordinates></Point></Placemark><Placemark><name>F090 BBS ES B-140 PK-3.1 - Santa Perpètua de Mogoda A (Barcelona) - wyxchari</name><Point><coordinates>2.14494,41.53216,0</coordinates></Point></Placemark><Placemark><name>F090 BBS ES C-59 PK-19 - Caldes de Montbui D (Barcelona) - Ache</name><Point><coordinates>2.1649,41.67056,0</coordinates></Point></Placemark><Placemark><name>F090 BBS ES N-260 PK-209.1 - El Pont de Bar D (Lérida) - FerScrich</name><Point><coordinates>1.64788,42.36616,0</coordinates></Point></Placemark><Placemark><name>F090 BBS ES N-260 PK-199.1 - Prulláns A (Lérida) - FerScrich</name><Point><coordinates>1.74761,42.37331,0</coordinates></Point></Placemark><Placemark><name>F090 BBS ES C-59 PK-11.1 - Caldes de Montbui D (Barcelona) - FerScrich</name><Point><coordinates>2.17962,41.60625,0</coordinates></Point></Placemark><Placemark><name>F090 BBS ES BV-5001 PK-7.9 - Montcada A (Barcelona) - Ache</name><Point><coordinates>2.19386,41.4876,0</coordinates></Point></Placemark><Placemark><name>F090 BBS ES BV-5001 PK-11.6 - Sant Fost de Campsentelles D (Barcelona) - FerScrich</name><Point><coordinates>2.21441,41.51479,0</coordinates></Point></Placemark><Placemark><name>F090 BBS ES BV-1435 PK-9.6 - Sta. Eulàlia de Ronçana D (Barcelona) - FerScrich</name><Point><coordinates>2.23215,41.63499,0</coordinates></Point></Placemark><Placemark><name>F090 BBS ES C-155 PK-14.7 - Lliçà de Vall D (Barcelona) - FerScrich</name><Point><coordinates>2.25183,41.58754,0</coordinates></Point></Placemark><Placemark><name>F090 BBS ES C-35 PK-29.1 - Parets del Valles D (Barcelona) - FerScrich</name><Point><coordinates>2.25306,41.57157,0</coordinates></Point></Placemark><Placemark><name>F090 BBS ES C-251 PK-5.2 - La Roca del Vallès D (Barcelona) - FerScrich</name><Point><coordinates>2.33623,41.63445,0</coordinates></Point></Placemark><Placemark><name>F090 BBS ES C-38 PK-1.65 - Sant Joan Abadesses A (Gerona) - Ache</name><Point><coordinates>2.34353,42.2535,0</coordinates></Point></Placemark><Placemark><name>F090 BBS ES C-251 PK-12.3 - Llinars del Vallés A (Barcelona) - Atlanta</name><Point><coordinates>2.4165,41.64883,0</coordinates></Point></Placemark><Placemark><name>F090 BBS ES N-II PK-648.4 - Mataro D (Barcelona) - Ache</name><Point><coordinates>2.46308,41.54392,0</coordinates></Point></Placemark><Placemark><name>F090 BBS ES GI-552 PK-13.345 - Arbúcies D (Gerona) - impresora</name><Point><coordinates>2.5434,41.79906,0</coordinates></Point></Placemark><Placemark><name>F090 BBS ES N-II PK-657.9 - Arenys de Mar D (Barcelona) - wyxchari</name><Point><coordinates>2.56248,41.5808,0</coordinates></Point></Placemark><Placemark><name>F090 BBS ES C-35 PK-69.9 - Hostalric A (Gerona) - FerScrich</name><Point><coordinates>2.63129,41.74739,0</coordinates></Point></Placemark><Placemark><name>F090 BBS ES C-63 PK-21.2 - Riudarenas D (Gerona) - wyxchari</name><Point><coordinates>2.70172,41.83836,0</coordinates></Point></Placemark><Placemark><name>F090 BBS ES GI-512 PK-2.7 - Tordera A (Barcelona) - FerScrich</name><Point><coordinates>2.71128,41.71847,0</coordinates></Point></Placemark><Placemark><name>F090 BBS ES N-141a PK-108.8 - Bescano A (Gerona) - Ache</name><Point><coordinates>2.72536,41.96773,0</coordinates></Point></Placemark><Placemark><name>F090 BBS ES C-66 PK-54.1 - Sant Ferriol A (Gerona) - guaje47</name><Point><coordinates>2.74188,42.18175,0</coordinates></Point></Placemark><Placemark><name>F090 BBS ES N-2 PK-687.8 - Massanet de la Selva D (Gerona) - FerScrich</name><Point><coordinates>2.75084,41.74658,0</coordinates></Point></Placemark><Placemark><name>F090 BBS ES GI-682 PK-3.6 - Blanes D (Gerona) - Ache</name><Point><coordinates>2.76529,41.67421,0</coordinates></Point></Placemark><Placemark><name>F090 BBS ES N-260 PK-50 - Cabanelles D (Gerona) - FerScrich</name><Point><coordinates>2.8263,42.22168,0</coordinates></Point></Placemark><Placemark><name>F090 BBS ES Ma-2200 PK-50.3 - Pollensa D (Baleares) - ratatuis</name><Point><coordinates>3.02059,39.86247,0</coordinates></Point></Placemark><Placemark><name>F090 BBS ES MA-13 PK-46.4 - Alcudia A (Baleares) - impresora</name><Point><coordinates>3.07322,39.83714,0</coordinates></Point></Placemark><Placemark><name>F090 BBS ES Ma-5120 PK-6.6 - Felanitx A/D (Baleares) - Forocoches</name><Point><coordinates>3.08701,39.45624,0</coordinates></Point></Placemark><Placemark><name>F090 BBS ES Ma-12 PK-24.2 - Alcudia D (Baleares) - Ache</name><Point><coordinates>3.13268,39.77913,0</coordinates></Point></Placemark><Placemark><name>F090 BBS ES MA-14 PK-19.3 - Felanitx D (Baleares) - caceres222</name><Point><coordinates>3.16055,39.4892,0</coordinates></Point></Placemark><Placemark><name>F090 BBS ES Ma-15 PK-52.5 - Manacor A (Baleares) - ratatuis</name><Point><coordinates>3.24753,39.58646,0</coordinates></Point></Placemark><Placemark><name>F090 BBS ES Ma-4020 PK-5.2 - Manacor A (Baleares) - ratatuis</name><Point><coordinates>3.25857,39.5613,0</coordinates></Point></Placemark><Placemark><name>F090 BBS ES Me-1 PK-13.8 - Alaior A @ (Baleares) - guaje47</name><Point><coordinates>4.12648,39.93696,0</coordinates></Point></Placemark><Placemark><name>F090 BBS ES Me-1 PK-13.7 - Alaior D @ (Baleares) - Ache</name><Point><coordinates>4.12719,39.93682,0</coordinates></Point></Placemark><Placemark><name>F090 BBS ES C-65 PK-22.6 - Llambilles A (Gerona) - Ache</name><Point><coordinates>2.85262,41.90977,0</coordinates></Point></Placemark><Placemark><name>F090 BBS ES N-2 PK-736.5 - Báscara D (Gerona) - FerScrich</name><Point><coordinates>2.90318,42.13171,0</coordinates></Point></Placemark><Placemark><name>F090 BBS ES GI-682 PK-18.5 - Tossa de Mar A (Gerona) - FerScrich</name><Point><coordinates>2.90455,41.71979,0</coordinates></Point></Placemark><Placemark><name>F090 BBS ES GI-623 PK-6.3 - Camallera A (Gerona) - Ache</name><Point><coordinates>2.97449,42.12876,0</coordinates></Point></Placemark><Placemark><name>F090 BBS ES C-31 PK-376.5 - Siurana D (Gerona) - combo</name><Point><coordinates>3.01704,42.21862,0</coordinates></Point></Placemark><Placemark><name>F090 BBS ES C-31A PK-366 - Ventalló A (Gerona) - Ache</name><Point><coordinates>3.0675,42.13904,0</coordinates></Point></Placemark><Placemark><name>F090 BBS ES N-260 PK-26.3 - Garriguella A (Gerona) - FerScrich</name><Point><coordinates>3.075,42.32695,0</coordinates></Point></Placemark><Placemark><name>F090 BBS ES C-66 PK-5.6 - Forallac A (Gerona) - FerScrich</name><Point><coordinates>3.09048,41.95164,0</coordinates></Point></Placemark><Placemark><name>F090 BBS ES C-31 PK-336.13 - Begur D (Gerona) - Ache</name><Point><coordinates>3.16147,41.93888,0</coordinates></Point></Placemark></Folder></kml>
