<?xml version="1.0" encoding="ISO-8859-1"?>
<kml xmlns="http://earth.google.com/kml/2.0"><Folder><Placemark><name>C_AL BBS ES Carretera Cádiz - Benalmádena (Málaga) - TodoPOI</name><Point><coordinates>-4.54985,36.58111,0</coordinates></Point></Placemark><Placemark><name>C_AL BBS ES Calle Costa Rica - Torremolinos (Málaga) - stier</name><Point><coordinates>-4.50877,36.63723,0</coordinates></Point></Placemark><Placemark><name>C_AL BBS ES N-340 Carretera  @ (Cádiz) - stier</name><Point><coordinates>-4.48925,36.64723,0</coordinates></Point></Placemark><Placemark><name>C_AL BBS ES Calle Pasadilla de Barranco - Dos Hermanas (Sevilla) - isigpr</name><Point><coordinates>-5.96349,37.32162,0</coordinates></Point></Placemark><Placemark><name>C_AL BBS ES Calle Jardín de la Isla 4 (Sevilla) - TodoPOI</name><Point><coordinates>-5.96972,37.33527,0</coordinates></Point></Placemark><Placemark><name>C_AL BBS ES Avenida Alcalde Luis Uruñuela (Sevilla) - TodoPOI</name><Point><coordinates>-5.92833,37.40389,0</coordinates></Point></Placemark><Placemark><name>C_AL BBS ES Los Alcazares (Murcia) - TodoPOI</name><Point><coordinates>-0.87365,37.73861,0</coordinates></Point></Placemark><Placemark><name>C_AL BBS ES N-332 - San Pedro del Pinatar (Murcia) - TodoPOI</name><Point><coordinates>-0.7863,37.84526,0</coordinates></Point></Placemark><Placemark><name>C_AL BBS ES N-332 PK-45 (Murcia) - TodoPOI</name><Point><coordinates>-0.76315,37.89171,0</coordinates></Point></Placemark><Placemark><name>C_AL BBS ES Carretera Bailén - Motril (Jaén) - TodoPOI</name><Point><coordinates>-3.74741,37.77867,0</coordinates></Point></Placemark><Placemark><name>C_AL BBS ES Avenida Antonio Pascual Acosta (Jaén) - TodoPOI</name><Point><coordinates>-3.77038,37.78738,0</coordinates></Point></Placemark><Placemark><name>C_AL BBS ES JA-3102 PK-1 (Jaén) - TodoPOI</name><Point><coordinates>-3.7618,37.79461,0</coordinates></Point></Placemark><Placemark><name>C_AL BBS ES Carretera Bailén - Motril (Jaén) - TodoPOI</name><Point><coordinates>-3.77676,37.80642,0</coordinates></Point></Placemark><Placemark><name>C_AL BBS ES Carretera Tramo de Unión (Jaén) - TodoPOI</name><Point><coordinates>-3.77265,37.8161,0</coordinates></Point></Placemark><Placemark><name>C_AL BBS ES RM-602 PK-0.4 (Murcia) - TodoPOI</name><Point><coordinates>-1.40931,37.83224,0</coordinates></Point></Placemark><Placemark><name>C_AL BBS ES RM-608 PK-2 (Murcia) - TodoPOI</name><Point><coordinates>-1.42049,37.8442,0</coordinates></Point></Placemark><Placemark><name>C_AL BBS ES Alhama de Murcia (Murcia) - TodoPOI</name><Point><coordinates>-1.42472,37.85096,0</coordinates></Point></Placemark><Placemark><name>C_AL BBS ES N-340a - Gines Campos (Murcia) - TodoPOI</name><Point><coordinates>-1.4039,37.85815,0</coordinates></Point></Placemark><Placemark><name>C_AL BBS ES Avenida del Progreso (Murcia) - TodoPOI</name><Point><coordinates>-1.11623,37.95457,0</coordinates></Point></Placemark><Placemark><name>C_AL BBS ES RM-302 (Murcia) - TodoPOI</name><Point><coordinates>-1.08806,37.96341,0</coordinates></Point></Placemark><Placemark><name>C_AL BBS ES Camino de Tiñosa de Los Dolores (Murcia) - TodoPOI</name><Point><coordinates>-1.09763,37.97007,0</coordinates></Point></Placemark><Placemark><name>C_AL BBS ES Carretera de Torreaguera (Murcia) - TodoPOI</name><Point><coordinates>-1.06287,37.97831,0</coordinates></Point></Placemark><Placemark><name>C_AL BBS ES F-2 (Murcia) - TodoPOI</name><Point><coordinates>-1.08649,37.99906,0</coordinates></Point></Placemark><Placemark><name>C_AL BBS ES Avenida Canalejas (Murcia) - TodoPOI</name><Point><coordinates>-1.13123,37.98191,0</coordinates></Point></Placemark><Placemark><name>C_AL BBS ES Avenida Miguel Indurain (Murcia) - TodoPOI</name><Point><coordinates>-1.10753,37.98383,0</coordinates></Point></Placemark><Placemark><name>C_AL BBS ES Gran Via Escultor Francisco Salzillo (Murcia) - TodoPOI</name><Point><coordinates>-1.13213,37.98625,0</coordinates></Point></Placemark><Placemark><name>C_AL BBS ES Carretera de Alicante (Murcia) - TodoPOI</name><Point><coordinates>-1.11695,37.99116,0</coordinates></Point></Placemark><Placemark><name>C_AL BBS ES Plaza de Juan XXIII (Murcia) - TodoPOI</name><Point><coordinates>-1.12571,37.99166,0</coordinates></Point></Placemark><Placemark><name>C_AL BBS ES Ronda de Levante (Murcia) - TodoPOI</name><Point><coordinates>-1.12967,37.99259,0</coordinates></Point></Placemark><Placemark><name>C_AL BBS ES Garcia Aranda (Murcia) - TodoPOI</name><Point><coordinates>-1.1161,37.99463,0</coordinates></Point></Placemark><Placemark><name>C_AL BBS ES Carretera San Javier de Los Ramos (Murcia) - TodoPOI</name><Point><coordinates>-1.02508,37.9987,0</coordinates></Point></Placemark><Placemark><name>C_AL BBS ES Camino Viejo de Casillas (Murcia) - TodoPOI</name><Point><coordinates>-1.10786,38.00402,0</coordinates></Point></Placemark><Placemark><name>C_AL BBS ES Carretera de Alicante (Murcia) - TodoPOI</name><Point><coordinates>-1.08588,38.04278,0</coordinates></Point></Placemark><Placemark><name>C_AL BBS ES Calle Francisco Jose Vicente Ortega (Murcia) - TodoPOI</name><Point><coordinates>-1.03082,38.01036,0</coordinates></Point></Placemark><Placemark><name>C_AL BBS ES N-301a PK-389.3 (Murcia) - TodoPOI</name><Point><coordinates>-1.16211,38.02162,0</coordinates></Point></Placemark><Placemark><name>C_AL BBS ES Polígono Juan de Borbón (Murcia) - TodoPOI</name><Point><coordinates>-1.14376,38.02472,0</coordinates></Point></Placemark><Placemark><name>C_AL BBS ES MU 522 - Archena (Murcia) - archenero</name><Point><coordinates>-1.27368,38.11982,0</coordinates></Point></Placemark><Placemark><name>C_AL BBS ES Avenida Fernando Perez Ojeda (Alicante) - TodoPOI</name><Point><coordinates>-0.55891,38.19099,0</coordinates></Point></Placemark><Placemark><name>C_AL BBS ES Carretera Elche 32 - Santa Pola (Alicante) - TodoPOI</name><Point><coordinates>-0.56699,38.19905,0</coordinates></Point></Placemark><Placemark><name>C_AL BBS ES N-332 88 - Santa Pola (Alicante) - garciaaa</name><Point><coordinates>-0.56158,38.20329,0</coordinates></Point></Placemark><Placemark><name>C_AL BBS ES A-77a - San Vicente del Raspeig (Alicante) - pacohue</name><Point><coordinates>-0.52278,38.38534,0</coordinates></Point></Placemark><Placemark><name>C_AL BBS ES CV-645 - Novelé (Valencia) - TodoPOI</name><Point><coordinates>-0.5537,38.97811,0</coordinates></Point></Placemark><Placemark><name>C_AL BBS ES CV-645 PK-3.5 (Valencia) - mus</name><Point><coordinates>-0.53716,38.98526,0</coordinates></Point></Placemark><Placemark><name>C_AL BBS ES A-7 VS - Canals (Valencia) - mus</name><Point><coordinates>-0.57811,38.98252,0</coordinates></Point></Placemark><Placemark><name>C_AL BBS ES BA-138 PK-3.8 (Badajoz) - 1967</name><Point><coordinates>-5.20156,39.06359,0</coordinates></Point></Placemark><Placemark><name>C_AL BBS ES N-430 PK-154.3 (Badajoz) - 1967</name><Point><coordinates>-5.32781,39.11147,0</coordinates></Point></Placemark><Placemark><name>C_AL BBS ES N-430 PK-167.9 (Badajoz) - 1967</name><Point><coordinates>-5.18692,39.13882,0</coordinates></Point></Placemark><Placemark><name>C_AL BBS ES N-502 PK-232.9 (Badajoz) - 1967</name><Point><coordinates>-5.04088,39.16939,0</coordinates></Point></Placemark><Placemark><name>C_AL BBS ES Avenida de la Hispanidad 37-39  @ (Cáceres) - tencas</name><Point><coordinates>-6.37346,39.4612,0</coordinates></Point></Placemark><Placemark><name>C_AL BBS ES EX-206 5 (Cáceres) - tencas</name><Point><coordinates>-6.37845,39.46776,0</coordinates></Point></Placemark><Placemark><name>C_AL BBS ES Avenida de Ruta de la Plata 16 (Cáceres) - tencas</name><Point><coordinates>-6.38782,39.47106,0</coordinates></Point></Placemark><Placemark><name>C_AL BBS ES Avenida General Primo de Rivera  @ (Cáceres) - tencas</name><Point><coordinates>-6.37809,39.47211,0</coordinates></Point></Placemark><Placemark><name>C_AL BBS ES Avenida de Hernán Cortés 5  @ (Cáceres) - tencas</name><Point><coordinates>-6.37889,39.47402,0</coordinates></Point></Placemark><Placemark><name>C_AL BBS ES Calle del Botánico Rivas Mateo @ (Cáceres) - tencas</name><Point><coordinates>-6.38013,39.47502,0</coordinates></Point></Placemark><Placemark><name>C_AL BBS ES Calle San José  @ (Cáceres) - tencas</name><Point><coordinates>-6.37375,39.47576,0</coordinates></Point></Placemark><Placemark><name>C_AL BBS ES N-V - Millanes (Cáceres) - TodoPOI</name><Point><coordinates>-5.58117,39.87337,0</coordinates></Point></Placemark><Placemark><name>C_AL BBS ES EX-118 (Cáceres) - TodoPOI</name><Point><coordinates>-5.51293,39.89099,0</coordinates></Point></Placemark><Placemark><name>C_AL BBS ES CCV-904 - Cuacos de Yuste  @ (Cáceres) - TodoPOI</name><Point><coordinates>-5.61404,40.02682,0</coordinates></Point></Placemark><Placemark><name>C_AL BBS ES EX-203 (Cáceres) - TodoPOI</name><Point><coordinates>-5.74821,40.05781,0</coordinates></Point></Placemark><Placemark><name>C_AL BBS ES Puerta Toledo (Toledo) - TodoPOI</name><Point><coordinates>-3.99657,39.94489,0</coordinates></Point></Placemark><Placemark><name>C_AL BBS ES TO-1927 PK-9.4 (Toledo) - TodoPOI</name><Point><coordinates>-4.11512,40.07412,0</coordinates></Point></Placemark><Placemark><name>C_AL BBS ES CM-4003 PK-25.4 (Toledo) - TodoPOI</name><Point><coordinates>-4.12171,40.09683,0</coordinates></Point></Placemark><Placemark><name>C_AL BBS ES TO-1927 PK-17 (Toledo) - TodoPOI</name><Point><coordinates>-4.03719,40.10107,0</coordinates></Point></Placemark><Placemark><name>C_AL BBS ES Salida A-42 a CM-41 - Illescas (Toledo) - TodoPOI</name><Point><coordinates>-3.84864,40.1028,0</coordinates></Point></Placemark><Placemark><name>C_AL BBS ES TO-1927 PK-18 (Toledo) - TodoPOI</name><Point><coordinates>-4.02758,40.10725,0</coordinates></Point></Placemark><Placemark><name>C_AL BBS ES CM-4011 PK-8.9 (Toledo) - TodoPOI</name><Point><coordinates>-4.21079,40.04691,0</coordinates></Point></Placemark><Placemark><name>C_AL BBS ES Carretera Ávila - Maqueda (Toledo) - focus16v</name><Point><coordinates>-4.36888,40.05968,0</coordinates></Point></Placemark><Placemark><name>C_AL BBS ES Carretera Ávila - Maqueda (Toledo) - focus16v</name><Point><coordinates>-4.37122,40.06145,0</coordinates></Point></Placemark><Placemark><name>C_AL BBS ES TO-1742 PK-0 (Toledo) - TodoPOI</name><Point><coordinates>-4.17274,40.1585,0</coordinates></Point></Placemark><Placemark><name>C_AL BBS ES TO-1836 PK-1 (Toledo) - TodoPOI</name><Point><coordinates>-4.12336,40.15969,0</coordinates></Point></Placemark><Placemark><name>C_AL BBS ES CM-4003 PK-33.6 - Casarrubios del Monte (Toledo) - TodoPOI</name><Point><coordinates>-4.10955,40.16847,0</coordinates></Point></Placemark><Placemark><name>C_AL BBS ES N-404 N-IV (Madrid) - TodoPOI</name><Point><coordinates>-3.66485,40.16411,0</coordinates></Point></Placemark><Placemark><name>C_AL BBS ES Camino Valdesanchuela - Valdemoro (Madrid) - TodoPOI</name><Point><coordinates>-3.674,40.19527,0</coordinates></Point></Placemark><Placemark><name>C_AL BBS ES Plaza Doctor Manuel Jarabo (Madrid) - TodoPOI</name><Point><coordinates>-3.58861,40.21538,0</coordinates></Point></Placemark><Placemark><name>C_AL BBS ES Avenida John Deere 2 - Parla (Madrid) - TodoPOI</name><Point><coordinates>-3.7821,40.24437,0</coordinates></Point></Placemark><Placemark><name>C_AL BBS ES Avenida Comunidades de Europa - Parla (Madrid) - TodoPOI</name><Point><coordinates>-3.76475,40.2526,0</coordinates></Point></Placemark><Placemark><name>C_AL BBS ES Calle Rio Almanzora - Nassica (Madrid) - TodoPOI</name><Point><coordinates>-3.70727,40.27254,0</coordinates></Point></Placemark><Placemark><name>C_AL BBS ES Calle Carpinteros - Getafe (Madrid) - TodoPOI</name><Point><coordinates>-3.70161,40.30449,0</coordinates></Point></Placemark><Placemark><name>C_AL BBS ES San Dalmacio (Madrid) - TodoPOI</name><Point><coordinates>-3.6977,40.3395,0</coordinates></Point></Placemark><Placemark><name>C_AL BBS ES Avenida Juan Borbon (Madrid) - TodoPOI</name><Point><coordinates>-3.7104,40.3121,0</coordinates></Point></Placemark><Placemark><name>C_AL BBS ES Calle del Camino de Leganes - Mostoles (Madrid) - TodoPOI</name><Point><coordinates>-3.84465,40.32413,0</coordinates></Point></Placemark><Placemark><name>C_AL BBS ES Carretera Villavic - Mostoles (Madrid) - TodoPOI</name><Point><coordinates>-3.88625,40.33511,0</coordinates></Point></Placemark><Placemark><name>C_AL BBS ES Calle Industrias 23 - Alcorcón (Madrid) - TodoPOI</name><Point><coordinates>-3.81437,40.33945,0</coordinates></Point></Placemark><Placemark><name>C_AL BBS ES Calle Polvoranca 37 - Alcorcón (Madrid) - TodoPOI</name><Point><coordinates>-3.81998,40.34273,0</coordinates></Point></Placemark><Placemark><name>C_AL BBS ES Avenida Real de Pinto (Madrid) - TodoPOI</name><Point><coordinates>-3.7084,40.3394,0</coordinates></Point></Placemark><Placemark><name>C_AL BBS ES Calle Nicaragua - Alcorcón (Madrid) - TodoPOI</name><Point><coordinates>-3.82154,40.35674,0</coordinates></Point></Placemark><Placemark><name>C_AL BBS ES M-407 (Madrid) - TodoPOI</name><Point><coordinates>-3.86976,40.21202,0</coordinates></Point></Placemark><Placemark><name>C_AL BBS ES M-600 - Navalcarnero (Madrid) - TodoPOI</name><Point><coordinates>-4.02712,40.27921,0</coordinates></Point></Placemark><Placemark><name>C_AL BBS ES Avenida Poblados (Madrid) - TodoPOI</name><Point><coordinates>-3.7453,40.37426,0</coordinates></Point></Placemark><Placemark><name>C_AL BBS ES Glorieta Embajadores 10 (Madrid) - TodoPOI</name><Point><coordinates>-3.70265,40.40529,0</coordinates></Point></Placemark><Placemark><name>C_AL BBS ES Corregidor Diego Valderrabano 13 (Madrid) - TodoPOI</name><Point><coordinates>-3.66065,40.40903,0</coordinates></Point></Placemark><Placemark><name>C_AL BBS ES Doctor Garcia Tapia 23 (Madrid) - TodoPOI</name><Point><coordinates>-3.65877,40.41397,0</coordinates></Point></Placemark><Placemark><name>C_AL BBS ES Jose Abascal (Madrid) - Castellana</name><Point><coordinates>-3.69095,40.43829,0</coordinates></Point></Placemark><Placemark><name>C_AL BBS ES Joaquin Costa (Madrid) - TodoPOI</name><Point><coordinates>-3.69153,40.44638,0</coordinates></Point></Placemark><Placemark><name>C_AL BBS ES Ronda deToledo 14 (Madrid) - TodoPOI</name><Point><coordinates>-3.70873,40.40609,0</coordinates></Point></Placemark><Placemark><name>C_AL BBS ES M-40 (Madrid) - TodoPOI</name><Point><coordinates>-3.6589,40.36831,0</coordinates></Point></Placemark><Placemark><name>C_AL BBS ES Calle del Congosto (Madrid) - TodoPOI</name><Point><coordinates>-3.62028,40.3761,0</coordinates></Point></Placemark><Placemark><name>C_AL BBS ES Carretera Villaverde a Vallecas 295 (Madrid) - TodoPOI</name><Point><coordinates>-3.63056,40.37639,0</coordinates></Point></Placemark><Placemark><name>C_AL BBS ES Calle Felipe Álvarez 19 (Madrid) - TodoPOI</name><Point><coordinates>-3.62417,40.38167,0</coordinates></Point></Placemark><Placemark><name>C_AL BBS ES M-503 (Madrid) - TodoPOI</name><Point><coordinates>-3.83435,40.42396,0</coordinates></Point></Placemark><Placemark><name>C_AL BBS ES Carretera de Húmera - Pozuelo (Madrid) - TodoPOI</name><Point><coordinates>-3.79835,40.43501,0</coordinates></Point></Placemark><Placemark><name>C_AL BBS ES Carretera de Aravaca - Pozuelo (Madrid) - TodoPOI</name><Point><coordinates>-3.78229,40.44044,0</coordinates></Point></Placemark><Placemark><name>C_AL BBS ES Calle Manuel de Falla 4 - Pozuelo (Madrid) - TodoPOI</name><Point><coordinates>-3.81206,40.45595,0</coordinates></Point></Placemark><Placemark><name>C_AL BBS ES Sor Angela de la Cruz (Madrid) - TodoPOI</name><Point><coordinates>-3.6913,40.4592,0</coordinates></Point></Placemark><Placemark><name>C_AL BBS ES Camino Volta 36 - Peñíscola (Castellón) - TodoPOI</name><Point><coordinates>0.40861,40.39333,0</coordinates></Point></Placemark><Placemark><name>C_AL BBS ES N-340 PK-1044.8 (Castellón) - TodoPOI</name><Point><coordinates>0.42699,40.42376,0</coordinates></Point></Placemark><Placemark><name>C_AL BBS ES N-340 PK-1051 (Castellón) - TodoPOI</name><Point><coordinates>0.46472,40.46861,0</coordinates></Point></Placemark><Placemark><name>C_AL BBS ES Cruce 4 caminos (Guadalajara) - kamal</name><Point><coordinates>-3.15753,40.62211,0</coordinates></Point></Placemark><Placemark><name>C_AL BBS ES Avenida del Ejército 38 (Guadalajara) - kamal</name><Point><coordinates>-3.1805,40.62695,0</coordinates></Point></Placemark><Placemark><name>C_AL BBS ES Camino Ribatejada 1 - Valdeavero (Madrid) - TodoPOI</name><Point><coordinates>-3.33712,40.63266,0</coordinates></Point></Placemark><Placemark><name>C_AL BBS ES Plaça d Europa 5 - Salou (Tarragona) - TodoPOI</name><Point><coordinates>1.14378,41.07688,0</coordinates></Point></Placemark><Placemark><name>C_AL BBS ES C-14 - Salou (Tarragona) - TodoPOI</name><Point><coordinates>1.13039,41.08979,0</coordinates></Point></Placemark><Placemark><name>C_AL BBS ES Avenida Salou 169 - Reus (Tarragona) - TodoPOI</name><Point><coordinates>1.12018,41.13642,0</coordinates></Point></Placemark><Placemark><name>C_AL BBS ES SG-205 - Cantalejo (Segovia) - TodoPOI</name><Point><coordinates>-3.91004,41.25676,0</coordinates></Point></Placemark><Placemark><name>C_AL BBS ES CL-112 - Cantalejo (Segovia) - TodoPOI</name><Point><coordinates>-3.93409,41.26239,0</coordinates></Point></Placemark><Placemark><name>C_AL BBS ES CL-603 (Segovia) - TodoPOI</name><Point><coordinates>-3.95606,41.39304,0</coordinates></Point></Placemark><Placemark><name>C_AL BBS ES Urban les Terrasses de Sitge (Barcelona) - TodoPOI</name><Point><coordinates>1.92812,41.26397,0</coordinates></Point></Placemark><Placemark><name>C_AL BBS ES Passeig Pitort 20 - Castelldefels (Barcelona) - TodoPOI</name><Point><coordinates>1.96932,41.26908,0</coordinates></Point></Placemark><Placemark><name>C_AL BBS ES Avenida Constitució 304 - Castelldefels (Barcelona) - TodoPOI</name><Point><coordinates>1.96538,41.26974,0</coordinates></Point></Placemark><Placemark><name>C_AL BBS ES Carretera Silici 13 - Cornellá (Barcelona) - TodoPOI</name><Point><coordinates>2.09091,41.35629,0</coordinates></Point></Placemark><Placemark><name>C_AL BBS ES Passeig de la Zona Franca 230 (Barcelona) - defensor</name><Point><coordinates>2.1373,41.36278,0</coordinates></Point></Placemark><Placemark><name>C_AL BBS ES Ronda del Litoral (Barcelona) - jose-m-m</name><Point><coordinates>2.17196,41.3666,0</coordinates></Point></Placemark><Placemark><name>C_AL BBS ES Passeig de Pujades (Barcelona) - TodoPOI</name><Point><coordinates>2.18276,41.38835,0</coordinates></Point></Placemark><Placemark><name>C_AL BBS ES Carretera Almogàvers 79 (Barcelona) - TodoPOI</name><Point><coordinates>2.18719,41.39497,0</coordinates></Point></Placemark><Placemark><name>C_AL BBS ES Carretera Llobregós 93 (Barcelona) - TodoPOI</name><Point><coordinates>2.15815,41.42532,0</coordinates></Point></Placemark><Placemark><name>C_AL BBS ES Rambla del Carmel (Barcelona) - TodoPOI</name><Point><coordinates>2.15648,41.42986,0</coordinates></Point></Placemark><Placemark><name>C_AL BBS ES Avenida Navarra - Badalona (Barcelona) - Rob_Cole</name><Point><coordinates>2.25221,41.45817,0</coordinates></Point></Placemark><Placemark><name>C_AL BBS ES Carretera Luxemburg - Badalona (Barcelona) - TodoPOI</name><Point><coordinates>2.22639,41.4592,0</coordinates></Point></Placemark><Placemark><name>C_AL BBS ES C-1413a - Sant Cugat del Vallès (Barcelona) - TodoPOI</name><Point><coordinates>2.02025,41.46672,0</coordinates></Point></Placemark><Placemark><name>C_AL BBS ES Carretera Ferralla 2 - Castellbisbal (Barcelona) - TodoPOI</name><Point><coordinates>1.97141,41.46799,0</coordinates></Point></Placemark><Placemark><name>C_AL BBS ES C-33 13 - La Llagosta  @ (Barcelona) - TodoPOI</name><Point><coordinates>2.20485,41.51029,0</coordinates></Point></Placemark><Placemark><name>C_AL BBS ES Carretera Montcada 661 - Terrassa (Barcelona) - TodoPOI</name><Point><coordinates>2.03921,41.55702,0</coordinates></Point></Placemark><Placemark><name>C_AL BBS ES Carretera de Matadepera 183 - Terrassa (Barcelona) - TodoPOI</name><Point><coordinates>2.0171,41.57532,0</coordinates></Point></Placemark><Placemark><name>C_AL BBS ES Avenida de Font i Sagua 1-3 - Terrassa (Barcelona) - TodoPOI</name><Point><coordinates>2.03667,41.58177,0</coordinates></Point></Placemark><Placemark><name>C_AL BBS ES Barrio Can Aguilera 1 - Piera (Barcelona) - TodoPOI</name><Point><coordinates>1.75002,41.52624,0</coordinates></Point></Placemark><Placemark><name>C_AL BBS ES N-IIa 560 - Òdena  @ (Barcelona) - TodoPOI</name><Point><coordinates>1.65719,41.5771,0</coordinates></Point></Placemark><Placemark><name>C_AL BBS ES C-15 - Vilanova del Camí (Barcelona) - TodoPOI</name><Point><coordinates>1.66879,41.57989,0</coordinates></Point></Placemark><Placemark><name>C_AL BBS ES N-IIa - Òdena  @ (Barcelona) - TodoPOI</name><Point><coordinates>1.6487,41.57804,0</coordinates></Point></Placemark><Placemark><name>C_AL BBS ES Carretera de Cal Rida Òdena (Barcelona) - TodoPOI</name><Point><coordinates>1.63988,41.57846,0</coordinates></Point></Placemark><Placemark><name>C_AL BBS ES N-IIa - Igualada (Barcelona) - TodoPOI</name><Point><coordinates>1.61689,41.58903,0</coordinates></Point></Placemark><Placemark><name>C_AL BBS ES C-1415 PK-72 - La Roca del Vallés (Barcelona) - TodoPOI</name><Point><coordinates>2.33059,41.58923,0</coordinates></Point></Placemark><Placemark><name>C_AL BBS ES B-143 - Palau-solità i Plegamans (Barcelona) - TodoPOI</name><Point><coordinates>2.18061,41.59888,0</coordinates></Point></Placemark><Placemark><name>C_AL BBS ES C-17 - Centelles (Barcelona) - TodoPOI</name><Point><coordinates>2.24499,41.77519,0</coordinates></Point></Placemark><Placemark><name>C_AL BBS ES N-330 PK-487.9 D @ (Zaragoza) - TodoPOI</name><Point><coordinates>-0.94316,41.59282,0</coordinates></Point></Placemark><Placemark><name>C_AL BBS ES Camino Alfaz 18 (Zaragoza) - TodoPOI</name><Point><coordinates>-0.91177,41.6126,0</coordinates></Point></Placemark><Placemark><name>C_AL BBS ES Ronda de la Hispanidad (Zaragoza) - javierzgz</name><Point><coordinates>-0.8637,41.62167,0</coordinates></Point></Placemark><Placemark><name>C_AL BBS ES Avenida Cesáreo Alierta (Zaragoza) - javierzgz</name><Point><coordinates>-0.87842,41.64583,0</coordinates></Point></Placemark><Placemark><name>C_AL BBS ES Avenida de Casablanca (Zaragoza) - TodoPOI</name><Point><coordinates>-0.92028,41.61639,0</coordinates></Point></Placemark><Placemark><name>C_AL BBS ES Avenida Septimo Arte (Zaragoza) - javierzgz</name><Point><coordinates>-0.92802,41.61991,0</coordinates></Point></Placemark><Placemark><name>C_AL BBS ES N-232 PK-233.3 (Zaragoza) - javierzgz</name><Point><coordinates>-0.84965,41.62612,0</coordinates></Point></Placemark><Placemark><name>C_AL BBS ES N-125 PK-8.9 (Zaragoza) - javierzgz</name><Point><coordinates>-0.9469,41.65905,0</coordinates></Point></Placemark><Placemark><name>C_AL BBS ES VA-20 31A (Valladolid) - honi</name><Point><coordinates>-4.70958,41.62878,0</coordinates></Point></Placemark><Placemark><name>C_AL BBS ES Avenida de Medina del Campo (Valladolid) - unilhexio</name><Point><coordinates>-4.74864,41.63365,0</coordinates></Point></Placemark><Placemark><name>C_AL BBS ES Calle del Monasterio San Lorenzo del Escorial 117 (Valladolid) - unilhexio</name><Point><coordinates>-4.75231,41.6447,0</coordinates></Point></Placemark><Placemark><name>C_AL BBS ES Calle del Monasterio Santo Domingo Silos 14D (Valladolid) - unilhexio</name><Point><coordinates>-4.74422,41.64497,0</coordinates></Point></Placemark><Placemark><name>C_AL BBS ES Avenida de José Luis Arrese 13 (Valladolid) - unilhexio</name><Point><coordinates>-4.73839,41.65067,0</coordinates></Point></Placemark><Placemark><name>C_AL BBS ES N-II 488 - Golmés (Lérida) - TodoPOI</name><Point><coordinates>0.91416,41.63002,0</coordinates></Point></Placemark><Placemark><name>C_AL BBS ES LP-3322 - Vila-sana (Lérida) - TodoPOI</name><Point><coordinates>0.89838,41.64453,0</coordinates></Point></Placemark><Placemark><name>C_AL BBS ES C-53 - Vilagrassa (Lérida) - TodoPOI</name><Point><coordinates>1.09641,41.65382,0</coordinates></Point></Placemark><Placemark><name>C_AL BBS ES LV-3025 - Preixens (Lérida) - TodoPOI</name><Point><coordinates>1.04756,41.79163,0</coordinates></Point></Placemark><Placemark><name>C_AL BBS ES Avenida Foz del Miñor Baiona (Pontevedra) - areas57</name><Point><coordinates>-8.81469,42.11528,0</coordinates></Point></Placemark><Placemark><name>C_AL BBS ES PO-331 (Pontevedra) - TodoPOI</name><Point><coordinates>-8.74222,42.12778,0</coordinates></Point></Placemark><Placemark><name>C_AL BBS ES Rúa Mestre Chané 20 - Vigo (Pontevedra) - zkfgh</name><Point><coordinates>-8.70394,42.24134,0</coordinates></Point></Placemark><Placemark><name>C_AL BBS ES N-554 - Moaña (Pontevedra) - TodoPOI</name><Point><coordinates>-8.66243,42.29176,0</coordinates></Point></Placemark><Placemark><name>C_AL BBS ES PO-2903 - Redondela (Pontevedra) - manuelkle</name><Point><coordinates>-8.61098,42.2997,0</coordinates></Point></Placemark><Placemark><name>C_AL BBS ES PO-308 (Pontevedra) - TodoPOI</name><Point><coordinates>-8.79332,42.39833,0</coordinates></Point></Placemark><Placemark><name>C_AL BBS ES Avenida Marín (Pontevedra) - TodoPOI</name><Point><coordinates>-8.68769,42.40103,0</coordinates></Point></Placemark><Placemark><name>C_AL BBS ES AG-4.1/VG-4.1 (Pontevedra) - TodoPOI</name><Point><coordinates>-8.81306,42.41194,0</coordinates></Point></Placemark><Placemark><name>C_AL BBS ES PO-225 - Alba (Pontevedra) - AGE</name><Point><coordinates>-8.64405,42.46491,0</coordinates></Point></Placemark><Placemark><name>C_AL BBS ES N-232 - Logroño (La Rioja) - TodoPOI</name><Point><coordinates>-2.35022,42.44971,0</coordinates></Point></Placemark><Placemark><name>C_AL BBS ES Carretera de Logroño - Mendavia (Navarra) - tencas</name><Point><coordinates>-2.21094,42.45022,0</coordinates></Point></Placemark><Placemark><name>C_AL BBS ES Avenida Gran Vía Rey Juan Carlos I 32 (La Rioja) - TodoPOI</name><Point><coordinates>-2.4503,42.46414,0</coordinates></Point></Placemark><Placemark><name>C_AL BBS ES Avenida Mendavía - Logroño (La Rioja) - TodoPOI</name><Point><coordinates>-2.41624,42.47209,0</coordinates></Point></Placemark><Placemark><name>C_AL BBS ES N-I (Guipúzcoa) - TodoPOI</name><Point><coordinates>-2.11167,43.09646,0</coordinates></Point></Placemark><Placemark><name>C_AL BBS ES N-634 Avenida De Aita Lertxundi (Guipúzcoa) - TodoPOI</name><Point><coordinates>-2.12855,43.27441,0</coordinates></Point></Placemark><Placemark><name>C_AL BBS ES N-634 Calle De Nafarroa (Guipúzcoa) - TodoPOI</name><Point><coordinates>-2.16965,43.28599,0</coordinates></Point></Placemark><Placemark><name>C_AL BBS ES LV-5 - Puente de Arco (Asturias) - mazinger</name><Point><coordinates>-5.54059,43.23568,0</coordinates></Point></Placemark><Placemark><name>C_AL BBS ES AS-17 - Pola de Laviana (Asturias) - mazinger</name><Point><coordinates>-5.55557,43.2385,0</coordinates></Point></Placemark><Placemark><name>C_AL BBS ES Calle Pelayo 19 - Pola de Laviana (Asturias) - mazinger</name><Point><coordinates>-5.56787,43.24977,0</coordinates></Point></Placemark><Placemark><name>C_AL BBS ES AS-117 PK-12.4  @ (Asturias) - SATGAR</name><Point><coordinates>-5.61306,43.27244,0</coordinates></Point></Placemark><Placemark><name>C_AL BBS ES Calle del Mina 6 - San Martín del Rey Aurelio @ (Asturias) - SATGAR</name><Point><coordinates>-5.61254,43.27517,0</coordinates></Point></Placemark><Placemark><name>C_AL BBS ES AS-17 - San Martín del Rey Aurelio (Asturias) - SATGAR</name><Point><coordinates>-5.62559,43.28492,0</coordinates></Point></Placemark><Placemark><name>C_AL BBS ES N-634 PK-399 (Asturias) - TodoPOI</name><Point><coordinates>-5.78739,43.37998,0</coordinates></Point></Placemark><Placemark><name>C_AL BBS ES A-66 PK-20.5 (Asturias) - TodoPOI</name><Point><coordinates>-5.80095,43.43234,0</coordinates></Point></Placemark><Placemark><name>C_AL BBS ES GJ-81 - Gijon (Asturias) - TodoPOI</name><Point><coordinates>-5.6808,43.53387,0</coordinates></Point></Placemark><Placemark><name>C_AL BBS ES AI-81 Carretera Circunvalación (Asturias) - TodoPOI</name><Point><coordinates>-5.89897,43.55194,0</coordinates></Point></Placemark><Placemark><name>C_AL BBS ES N-632 - Soto del Barco (Asturias) - TodoPOI</name><Point><coordinates>-5.96641,43.56545,0</coordinates></Point></Placemark><Placemark><name>C_AL BBS ES Avenida Lugo 126 (Asturias) - TodoPOI</name><Point><coordinates>-5.93234,43.57407,0</coordinates></Point></Placemark><Placemark><name>C_AL BBS ES AS-16 PK-7 (Asturias) - TodoPOI</name><Point><coordinates>-6.10273,43.4918,0</coordinates></Point></Placemark><Placemark><name>C_AL BBS ES AS-16 Rotonda Soto del Barco a Pravia (Asturias) - TodoPOI</name><Point><coordinates>-6.07514,43.52107,0</coordinates></Point></Placemark><Placemark><name>C_AL BBS ES N-632 - Soto del Barco (Asturias) - TodoPOI</name><Point><coordinates>-6.0705,43.53418,0</coordinates></Point></Placemark><Placemark><name>C_AL BBS ES N-632a PK-119 - Ronda Muros de Nalon (Asturias) - TodoPOI</name><Point><coordinates>-6.11126,43.54061,0</coordinates></Point></Placemark><Placemark><name>C_AL BBS ES La Barca De Vejer (Cádiz) - TodoPOI</name><Point><coordinates>-5.95694,36.25389,0</coordinates></Point></Placemark><Placemark><name>C_AL BBS ES Puerto Real (Cádiz) - TodoPOI</name><Point><coordinates>-6.19291,36.53336,0</coordinates></Point></Placemark><Placemark><name>C_AL BBS ES Rincon de la Victoria (Málaga) - TodoPOI</name><Point><coordinates>-4.29878,36.72338,0</coordinates></Point></Placemark><Placemark><name>C_AL BBS ES Carretera de Burgo 12 - Ronda (Málaga) - TodoPOI</name><Point><coordinates>-5.14869,36.75356,0</coordinates></Point></Placemark><Placemark><name>C_AL BBS ES Carretera Bailén - Motril Iznalloz (Granada) - TodoPOI</name><Point><coordinates>-3.56581,37.40645,0</coordinates></Point></Placemark><Placemark><name>C_AL BBS ES RM-11 (Murcia) - TodoPOI</name><Point><coordinates>-1.60015,37.41313,0</coordinates></Point></Placemark><Placemark><name>C_AL BBS ES N-331 - Montilla (Córdoba) - TodoPOI</name><Point><coordinates>-4.66113,37.59002,0</coordinates></Point></Placemark><Placemark><name>C_AL BBS ES A-8002 (Sevilla) - TodoPOI</name><Point><coordinates>-5.99977,37.66082,0</coordinates></Point></Placemark><Placemark><name>C_AL BBS ES Carretera del Aeropuerto (Córdoba) - pelagito</name><Point><coordinates>-4.8207,37.86543,0</coordinates></Point></Placemark><Placemark><name>C_AL BBS ES A-311 - Andújar (Jaén) - TodoPOI</name><Point><coordinates>-4.04617,38.01124,0</coordinates></Point></Placemark><Placemark><name>C_AL BBS ES Carretera Jódar - Úbeda (Jaén) - TodoPOI</name><Point><coordinates>-3.38669,38.01382,0</coordinates></Point></Placemark><Placemark><name>C_AL BBS ES C-451 PK-20.9 - Mula (Murcia) - espinetegg</name><Point><coordinates>-1.45943,38.04166,0</coordinates></Point></Placemark><Placemark><name>C_AL BBS ES MU-513 - Abaran (Murcia) - archenero</name><Point><coordinates>-1.38063,38.20667,0</coordinates></Point></Placemark><Placemark><name>C_AL BBS ES N-332 - La Font Campello (Alicante) - TodoPOI</name><Point><coordinates>-0.41503,38.41769,0</coordinates></Point></Placemark><Placemark><name>C_AL BBS ES CV-70 PK-49.1 D (Alicante) - alameda</name><Point><coordinates>-0.13432,38.55378,0</coordinates></Point></Placemark><Placemark><name>C_AL BBS ES N-310 - Manzanares (Ciudad Real) - TodoPOI</name><Point><coordinates>-3.35476,39.00336,0</coordinates></Point></Placemark><Placemark><name>C_AL BBS ES CM-3115 PK-1 (Ciudad Real) - TodoPOI</name><Point><coordinates>-3.0788,39.12252,0</coordinates></Point></Placemark><Placemark><name>C_AL BBS ES N-502 PK-241.8 (Badajoz) - 1967</name><Point><coordinates>-4.96134,39.12743,0</coordinates></Point></Placemark><Placemark><name>C_AL BBS ES CM-400 (Ciudad Real) - TodoPOI</name><Point><coordinates>-2.99528,39.16222,0</coordinates></Point></Placemark><Placemark><name>C_AL BBS ES Calle Pista de Silla (Valencia) - CristianDlx</name><Point><coordinates>-0.39647,39.38688,0</coordinates></Point></Placemark><Placemark><name>C_AL BBS ES Avenida de Criptana - Alcázar de San Juan (Ciudad Real) - TodoPOI</name><Point><coordinates>-3.19833,39.3925,0</coordinates></Point></Placemark><Placemark><name>C_AL BBS ES CM-4133 - Madridejos (Toledo) - TodoPOI</name><Point><coordinates>-3.53147,39.45736,0</coordinates></Point></Placemark><Placemark><name>C_AL BBS ES Avenida dels Tramvies (Valencia) - TodoPOI</name><Point><coordinates>-0.45653,39.48951,0</coordinates></Point></Placemark><Placemark><name>C_AL BBS ES Carretera Talaia 39 - Peguera (Baleares) - TodoPOI</name><Point><coordinates>2.44722,39.54361,0</coordinates></Point></Placemark><Placemark><name>C_AL BBS ES CM-5150 - Oropesa (Toledo) - TodoPOI</name><Point><coordinates>-5.18478,39.9263,0</coordinates></Point></Placemark><Placemark><name>C_AL BBS ES CV-197 - Alcano (Castellón) - anominos</name><Point><coordinates>-0.03046,39.97413,0</coordinates></Point></Placemark><Placemark><name>C_AL BBS ES CV-149 - Benicasim (Castellón) - TodoPOI</name><Point><coordinates>0.01603,40.02595,0</coordinates></Point></Placemark><Placemark><name>C_AL BBS ES Calle Brezo 10 - Plasencia (Cáceres) - tencas</name><Point><coordinates>-6.07946,40.04491,0</coordinates></Point></Placemark><Placemark><name>C_AL BBS ES Carretera del Alcázar 18 (Cuenca) - josemarias</name><Point><coordinates>-2.14286,40.05072,0</coordinates></Point></Placemark><Placemark><name>C_AL BBS ES Calle de Don Santos Arenas - Hormigos (Toledo) - focus16v</name><Point><coordinates>-4.44959,40.09716,0</coordinates></Point></Placemark><Placemark><name>C_AL BBS ES N-III - Arganda del Rey (Madrid) - wilkoazul</name><Point><coordinates>-3.38944,40.26213,0</coordinates></Point></Placemark><Placemark><name>C_AL BBS ES E-80 - Fuentes de Oñoro (Salamanca) - TodoPOI</name><Point><coordinates>-6.78469,40.58999,0</coordinates></Point></Placemark><Placemark><name>C_AL BBS ES San Agustin de Guadalix (Madrid) - TodoPOI</name><Point><coordinates>-3.61639,40.67889,0</coordinates></Point></Placemark><Placemark><name>C_AL BBS ES C-12 - Amposta (Tarragona) - TodoPOI</name><Point><coordinates>0.5657,40.70062,0</coordinates></Point></Placemark><Placemark><name>C_AL BBS ES TV-3408 - Amposta (Tarragona) - TodoPOI</name><Point><coordinates>0.58773,40.70336,0</coordinates></Point></Placemark><Placemark><name>C_AL BBS ES C-12 - Amposta (Tarragona) - TodoPOI</name><Point><coordinates>0.5643,40.70351,0</coordinates></Point></Placemark><Placemark><name>C_AL BBS ES Carretera Nàpols - Amposta (Tarragona) - TodoPOI</name><Point><coordinates>0.55047,40.70483,0</coordinates></Point></Placemark><Placemark><name>C_AL BBS ES Mirabueno  @ (Guadalajara) - mus</name><Point><coordinates>-2.71621,40.93134,0</coordinates></Point></Placemark><Placemark><name>C_AL BBS ES N-340 PK-1173 (Tarragona) - TodoPOI</name><Point><coordinates>1.35922,41.14799,0</coordinates></Point></Placemark><Placemark><name>C_AL BBS ES TV-2127 - El Vendrell (Tarragona) - TodoPOI</name><Point><coordinates>1.53793,41.19597,0</coordinates></Point></Placemark><Placemark><name>C_AL BBS ES N-110 - Cerezo de Abajo (Segovia) - jenito</name><Point><coordinates>-3.5861,41.23341,0</coordinates></Point></Placemark><Placemark><name>C_AL BBS ES SG-232 - Sepulveda (Segovia) - TodoPOI</name><Point><coordinates>-3.75943,41.29425,0</coordinates></Point></Placemark><Placemark><name>C_AL BBS ES N-340 - Santa Margarida i els Monjos (Barcelona) - esriki</name><Point><coordinates>1.66808,41.32423,0</coordinates></Point></Placemark><Placemark><name>C_AL BBS ES N-232a - Fuentes de Ebro (Zaragoza) - TodoPOI</name><Point><coordinates>-0.61184,41.50589,0</coordinates></Point></Placemark><Placemark><name>C_AL BBS ES B-224 - Vallbona Anoia (Barcelona) - TodoPOI</name><Point><coordinates>1.69353,41.52188,0</coordinates></Point></Placemark><Placemark><name>C_AL BBS ES C-1412 - Jorba (Barcelona) - TodoPOI</name><Point><coordinates>1.5392,41.60419,0</coordinates></Point></Placemark><Placemark><name>C_AL BBS ES Carretera Villamayor (Zaragoza) - TodoPOI</name><Point><coordinates>-0.8114,41.6719,0</coordinates></Point></Placemark><Placemark><name>C_AL BBS ES N-II - Tordera (Barcelona) - TodoPOI</name><Point><coordinates>2.73087,41.70219,0</coordinates></Point></Placemark><Placemark><name>C_AL BBS ES C-1412 - Els Prats de Rei (Barcelona) - TodoPOI</name><Point><coordinates>1.54027,41.70241,0</coordinates></Point></Placemark><Placemark><name>C_AL BBS ES C-17 - Tona (Barcelona) - TodoPOI</name><Point><coordinates>2.23752,41.85487,0</coordinates></Point></Placemark><Placemark><name>C_AL BBS ES N-601 PK-231.6 (Valladolid) - unilhexio</name><Point><coordinates>-5.03912,41.87648,0</coordinates></Point></Placemark><Placemark><name>C_AL BBS ES C-14 59 - Ponts (Lérida) - TodoPOI</name><Point><coordinates>1.16557,41.89421,0</coordinates></Point></Placemark><Placemark><name>C_AL BBS ES CL-615 (Palencia) - Gotego</name><Point><coordinates>-4.5589,42.03606,0</coordinates></Point></Placemark><Placemark><name>C_AL BBS ES Sanabria (Zamora) - TodoPOI</name><Point><coordinates>-6.62377,42.07958,0</coordinates></Point></Placemark><Placemark><name>C_AL BBS ES Avenida del Doctor Artero 68 (Huesca) - kikonuri</name><Point><coordinates>-0.42558,42.14863,0</coordinates></Point></Placemark><Placemark><name>C_AL BBS ES B-402 - La Pobla de Lillet (Barcelona) - TodoPOI</name><Point><coordinates>1.95962,42.23991,0</coordinates></Point></Placemark><Placemark><name>C_AL BBS ES Calle Mediavilla 53 - Calahorra (La Rioja) - polilar</name><Point><coordinates>-1.95988,42.29971,0</coordinates></Point></Placemark><Placemark><name>C_AL BBS ES LR-134 PK-11.2 - Calahorra (La Rioja) - polilar</name><Point><coordinates>-1.97863,42.30272,0</coordinates></Point></Placemark><Placemark><name>C_AL BBS ES N-120 PK-72.6 - Villambistia (Burgos) - TodoPOI</name><Point><coordinates>-3.26271,42.40837,0</coordinates></Point></Placemark><Placemark><name>C_AL BBS ES CL-623 96 (León) - joru169</name><Point><coordinates>-5.58488,42.59269,0</coordinates></Point></Placemark><Placemark><name>C_AL BBS ES CL-631 (León) - Toreno</name><Point><coordinates>-6.52973,42.69345,0</coordinates></Point></Placemark><Placemark><name>C_AL BBS ES AC-550 (La Coruña) - TodoPOI</name><Point><coordinates>-9.05777,42.76139,0</coordinates></Point></Placemark><Placemark><name>C_AL BBS ES N-540 (Lugo) - TodoPOI</name><Point><coordinates>-7.73906,42.83959,0</coordinates></Point></Placemark><Placemark><name>C_AL BBS ES Calle Francia 41 (Álava) - TodoPOI</name><Point><coordinates>-2.6699,42.8518,0</coordinates></Point></Placemark><Placemark><name>C_AL BBS ES Gamarra Mayor Entitatea 17 (Álava) - TodoPOI</name><Point><coordinates>-2.65621,42.87878,0</coordinates></Point></Placemark><Placemark><name>C_AL BBS ES AS-213 PK-2.8 - Cangas del Narcea (Asturias) - lalia</name><Point><coordinates>-6.54039,43.15786,0</coordinates></Point></Placemark><Placemark><name>C_AL BBS ES Salida Pola de Lena (Asturias) - TodoPOI</name><Point><coordinates>-5.82571,43.16531,0</coordinates></Point></Placemark><Placemark><name>C_AL BBS ES GI-2634 - Elgoibar (Guipúzcoa) - TodoPOI</name><Point><coordinates>-2.40078,43.22846,0</coordinates></Point></Placemark><Placemark><name>C_AL BBS ES AS-242 - La Reguerona (Asturias) - TodoPOI</name><Point><coordinates>-5.77926,43.2301,0</coordinates></Point></Placemark><Placemark><name>C_AL BBS ES N-634 PK-27.9 (Guipúzcoa) - TodoPOI</name><Point><coordinates>-2.24886,43.29706,0</coordinates></Point></Placemark><Placemark><name>C_AL BBS ES N-634 (Vizcaya) - TodoPOI</name><Point><coordinates>-3.06091,43.31767,0</coordinates></Point></Placemark><Placemark><name>C_AL BBS ES N-I (Guipúzcoa) - TodoPOI</name><Point><coordinates>-1.77806,43.34083,0</coordinates></Point></Placemark><Placemark><name>C_AL BBS ES N-634 PK-173.8 (Cantabria) - TodoPOI</name><Point><coordinates>-3.46662,43.39307,0</coordinates></Point></Placemark><Placemark><name>C_AL BBS ES N-651 - Pontedeume (La Coruña) - AGE</name><Point><coordinates>-8.16834,43.413,0</coordinates></Point></Placemark><Placemark><name>C_AL BBS ES AC-123 - Ares (La Coruña) - demonejro</name><Point><coordinates>-8.23797,43.43288,0</coordinates></Point></Placemark><Placemark><name>C_AL BBS ES Barrio San Pantaleón 27 - Arnuero (Cantabria) - TodoPOI</name><Point><coordinates>-3.5343,43.46491,0</coordinates></Point></Placemark><Placemark><name>C_AL BBS ES N-640 (Lugo) - caurelin</name><Point><coordinates>-7.05803,43.47307,0</coordinates></Point></Placemark><Placemark><name>C_AL BBS ES JO33 - Villaviciosa (Asturias) - TodoPOI</name><Point><coordinates>-5.44223,43.48702,0</coordinates></Point></Placemark></Folder></kml>
