<?xml version="1.0" encoding="ISO-8859-1"?>
<kml xmlns="http://earth.google.com/kml/2.0"><Folder><Placemark><name>F030 BBS ES Av. Tanausú 23 - Los Llanos A/D (Sta. Cruz de Tenerife) - Forocoches</name><Point><coordinates>-17.91963,28.65849,0</coordinates></Point></Placemark><Placemark><name>F030 BBS ES GC-302 PK-0.5 - Arucas D (Las Palmas) - jenito</name><Point><coordinates>-15.51011,28.11646,0</coordinates></Point></Placemark><Placemark><name>F030 BBS PT IC19 - São Marcos (Portugal) - Ache</name><Point><coordinates>-9.30044,38.76628,0</coordinates></Point></Placemark><Placemark><name>F030 BBS ES Avenida De Marin 10 - Ourense (Orense) - michael_schumi</name><Point><coordinates>-7.86684,42.34992,0</coordinates></Point></Placemark><Placemark><name>F030 BBS ES Nuestra Señora de la Saínza. 50 - Orense (Orense) - wyxchari</name><Point><coordinates>-7.86246,42.32606,0</coordinates></Point></Placemark><Placemark><name>F030 BBS ES Pena Trevinca. 40 - Orense (Orense) - wyxchari</name><Point><coordinates>-7.8618,42.33161,0</coordinates></Point></Placemark><Placemark><name>F030 BBS ES Ronda da Muralla 156 - Lugo (Lugo) - Radardroid</name><Point><coordinates>-7.56035,43.00973,0</coordinates></Point></Placemark><Placemark><name>F030 BBS ES Ronda da Muralla 69 - Lugo (Lugo) - Radardroid</name><Point><coordinates>-7.55625,43.01393,0</coordinates></Point></Placemark><Placemark><name>F030 BBS ES EX-107 PK-24.8 - Olivenza D (Badajoz) - wyxchari</name><Point><coordinates>-7.09573,38.68185,0</coordinates></Point></Placemark><Placemark><name>Radares BBS www.laradiobbs.net Actualizacion: miércoles, 7 de mayo de 2025 a las 07:08 - Semana: 19</name><Point><coordinates>0,0,0</coordinates></Point></Placemark><Placemark><name>F030 BBS ES Ctra. de la Barrosa 786G - Chiclana de la Frontera (Cádiz) - Forocoches</name><Point><coordinates>-6.17649,36.39339,0</coordinates></Point></Placemark><Placemark><name>F030 BBS ES Camino del Sotillo 23 - Chiclana de la Frontera (Cádiz) - wyxchari</name><Point><coordinates>-6.16713,36.38022,0</coordinates></Point></Placemark><Placemark><name>F030 BBS ES Av. de la Diputación 55 - Chiclana de la Fra. (Cádiz) - Forocoches</name><Point><coordinates>-6.16121,36.41501,0</coordinates></Point></Placemark><Placemark><name>F030 BBS ES Calle de la Rana Verde 31 - Chiclana de la Frontera (Cádiz) - wyxchari</name><Point><coordinates>-6.15933,36.39491,0</coordinates></Point></Placemark><Placemark><name>F030 BBS ES Ctra. de la Barrosa 40 - Chiclana de la Frontera (Cádiz) - wyxchari</name><Point><coordinates>-6.15838,36.41174,0</coordinates></Point></Placemark><Placemark><name>F030 BBS ES Ctra. de Fuente Amarga 119 - Chiclana de la Frontera (Cádiz) - wyxchari</name><Point><coordinates>-6.14575,36.40313,0</coordinates></Point></Placemark><Placemark><name>F030 BBS ES C/ Jardines 26 - Chiclana de la Fra. (Cádiz) - Forocoches</name><Point><coordinates>-6.14207,36.4192,0</coordinates></Point></Placemark><Placemark><name>F030 BBS ES Ctra. del Marquesado 6 - Chiclana de la Frontera (Cádiz) - wyxchari</name><Point><coordinates>-6.13955,36.43035,0</coordinates></Point></Placemark><Placemark><name>F030 BBS ES Callejón de los Frailes - Chiclana de la Fra. (Cádiz) - Forocoches</name><Point><coordinates>-6.13375,36.4205,0</coordinates></Point></Placemark><Placemark><name>F030 BBS ES C/ Muleta 16 - Chiclana de la Fra. (Cádiz) - Fororcoches</name><Point><coordinates>-6.12962,36.41799,0</coordinates></Point></Placemark><Placemark><name>F030 BBS ES SE-5204 PK-13 - Arahal A/D (Sevilla) - wyxchari</name><Point><coordinates>-5.55036,37.25274,0</coordinates></Point></Placemark><Placemark><name>F030 BBS ES SE-4200 PK-1.5 - Arahal A/D (Sevilla) - wyxchari</name><Point><coordinates>-5.5496,37.25682,0</coordinates></Point></Placemark><Placemark><name>F030 BBS ES Av. Virgen del Carmen 85 - Algeciras (Cádiz) - wyxchari</name><Point><coordinates>-5.45344,36.14045,0</coordinates></Point></Placemark><Placemark><name>F030 BBS ES Av. Virgen del Carmen 6 - Algeciras (Cádiz) - Ache</name><Point><coordinates>-5.44946,36.13873,0</coordinates></Point></Placemark><Placemark><name>F030 BBS ES Av. Virgen del Carmen 58 - Algeciras (Cádiz) - Ache</name><Point><coordinates>-5.44597,36.13566,0</coordinates></Point></Placemark><Placemark><name>F030 BBS ES Av. Virgen del Carmen - Algeciras (Cádiz) - wyxchari</name><Point><coordinates>-5.44571,36.13575,0</coordinates></Point></Placemark><Placemark><name>F030 BBS ES Av. Virgen del Carmen - Algeciras (Cádiz) - Ache</name><Point><coordinates>-5.44559,36.13223,0</coordinates></Point></Placemark><Placemark><name>F030 BBS ES Ctra. Getares - Algeciras (Cádiz) - Forocoches</name><Point><coordinates>-5.43947,36.11259,0</coordinates></Point></Placemark><Placemark><name>F030 BBS ES Calle Sevilla 105 - Marchena A/D (Sevilla) - wyxchari</name><Point><coordinates>-5.42213,37.32855,0</coordinates></Point></Placemark><Placemark><name>F030 BBS ES Camino Hondo 109 - Marchena A/D (Sevilla) - wyxchari</name><Point><coordinates>-5.40596,37.31899,0</coordinates></Point></Placemark><Placemark><name>F030 BBS GB Europa Advance Rd. - Gibraltar (Gibraltar) - lexabogado</name><Point><coordinates>-5.34363,36.11456,0</coordinates></Point></Placemark><Placemark><name>F030 BBS ES Av. del Prado 20 - Marbella (Málaga) - Forocoches</name><Point><coordinates>-4.96148,36.49985,0</coordinates></Point></Placemark><Placemark><name>F030 BBS ES Alcalde Clemente Díaz 67 - Fuengirola (Málaga) - wyxchari</name><Point><coordinates>-4.62621,36.54703,0</coordinates></Point></Placemark><Placemark><name>F030 BBS ES Av. Nuestro Padre Jesús Cautivo 4 - Fuengirola (Málaga) - wyxchari</name><Point><coordinates>-4.61311,36.55695,0</coordinates></Point></Placemark><Placemark><name>F030 BBS ES Paseo Marítimo Rey de España 90 - Fuengirola (Málaga) - wyxchari</name><Point><coordinates>-4.61116,36.55585,0</coordinates></Point></Placemark><Placemark><name>F030 BBS ES Av Cristóbal Colón 2N - Alhaurín de la Torre (Málaga) - wyxchari</name><Point><coordinates>-4.557,36.6607,0</coordinates></Point></Placemark><Placemark><name>F030 BBS ES Av. Pablo Ruiz Picasso 51 - Málaga (Málaga) - wyxchari</name><Point><coordinates>-4.3967,36.72257,0</coordinates></Point></Placemark><Placemark><name>F030 BBS ES C/ Bolivia 46 - Málaga (Málaga) - wyxchari</name><Point><coordinates>-4.37966,36.72145,0</coordinates></Point></Placemark><Placemark><name>F030 BBS ES Av. Juan Sebastián Elcano 63 - Málaga (Málaga) - Ache</name><Point><coordinates>-4.37483,36.72239,0</coordinates></Point></Placemark><Placemark><name>F030 BBS ES C/ Bolivia 144 - Málaga (Málaga) - wyxchari</name><Point><coordinates>-4.37479,36.72153,0</coordinates></Point></Placemark><Placemark><name>F030 BBS ES Av. Juan Sebastián Elcano 103 - Málaga (Málaga) - Ache</name><Point><coordinates>-4.37021,36.7224,0</coordinates></Point></Placemark><Placemark><name>F030 BBS ES Salvador Allende. 10 - Málaga (Málaga) - wyxchari</name><Point><coordinates>-4.36466,36.71982,0</coordinates></Point></Placemark><Placemark><name>F030 BBS ES Av. de Europa 8 - Montijo A/D (Badajoz) - Ache</name><Point><coordinates>-6.61477,38.90409,0</coordinates></Point></Placemark><Placemark><name>F030 BBS ES N-630 PK-622.2 - Merida A (Badajoz) - Ache</name><Point><coordinates>-6.33546,38.91303,0</coordinates></Point></Placemark><Placemark><name>F030 BBS ES Calle Alcalde Cruz Hernández - Salamanca (Salamanca) - Forocoches</name><Point><coordinates>-5.68931,40.95183,0</coordinates></Point></Placemark><Placemark><name>F030 BBS ES Av. Obispo Sancho de Castilla - Salamanca (Salamanca) - wyxchari</name><Point><coordinates>-5.68192,40.97423,0</coordinates></Point></Placemark><Placemark><name>F030 BBS ES Av de Lasalle 24 -Salamanca (Salamanca) - Ache</name><Point><coordinates>-5.67865,40.95513,0</coordinates></Point></Placemark><Placemark><name>F030 BBS ES Av. de Portugal 238 - Salamanca (Salamanca) - Ache</name><Point><coordinates>-5.67453,40.97317,0</coordinates></Point></Placemark><Placemark><name>F030 BBS ES Av. de Portugal 79 - Salamanca (Salamanca) - AnebaID</name><Point><coordinates>-5.66,40.97172,0</coordinates></Point></Placemark><Placemark><name>F030 BBS ES Paseo Canalejas 159 - Salamanca (Salamanca) - Ache</name><Point><coordinates>-5.65973,40.96005,0</coordinates></Point></Placemark><Placemark><name>F030 BBS ES Paseo Canalejas 31 - Salamanca (Salamanca) - Ache</name><Point><coordinates>-5.65777,40.96603,0</coordinates></Point></Placemark><Placemark><name>F030 BBS ES Av. de los Comuneros 44 - Salamanca (Salamanca) - wyxchari</name><Point><coordinates>-5.64936,40.96852,0</coordinates></Point></Placemark><Placemark><name>F030 BBS ES Av. de los Cipreses - Salamanca (Salamanca) - Forocoches</name><Point><coordinates>-5.64898,40.9766,0</coordinates></Point></Placemark><Placemark><name>F030 BBS ES C/ de Jesús Arambarri - Salamanca (Salamanca) - Minidi</name><Point><coordinates>-5.64169,40.97101,0</coordinates></Point></Placemark><Placemark><name>F030 BBS ES Av. Santiago Madrigal - Salamanca A/D (Salamanca) - Minidi</name><Point><coordinates>-5.63569,40.97107,0</coordinates></Point></Placemark><Placemark><name>F030 BBS ES N-501 PK-89.9 - Santa Marta de Tormes A (Salamanca) - tarranchin</name><Point><coordinates>-5.61538,40.94983,0</coordinates></Point></Placemark><Placemark><name>F030 BBS ES Calle Gral. Benavides 9 - La Bañeza (León) - Forocoches</name><Point><coordinates>-5.90231,42.30387,0</coordinates></Point></Placemark><Placemark><name>F030 BBS ES Carretera de Alija del Infantado 34 - La Bañeza (León) - Forocoches</name><Point><coordinates>-5.9015,42.29469,0</coordinates></Point></Placemark><Placemark><name>F030 BBS ES AS-232 PK-0.3 - Oviedo A (Asturias) - rosende50</name><Point><coordinates>-5.87524,43.36447,0</coordinates></Point></Placemark><Placemark><name>F030 BBS ES Calle Muñoz Degraín 4 - Oviedo (Asturias) - Todopoi</name><Point><coordinates>-5.85059,43.35579,0</coordinates></Point></Placemark><Placemark><name>F030 BBS ES Av. Conde Santa Bárbara 51 - Lugones (Asturias) - Ache</name><Point><coordinates>-5.81414,43.40971,0</coordinates></Point></Placemark><Placemark><name>F030 BBS ES Av.Conde Santa Bárbara 1 - Lugones (Asturias) - Ache</name><Point><coordinates>-5.80934,43.40475,0</coordinates></Point></Placemark><Placemark><name>F030 BBS ES C/ Santa Isabel 10 - Lugones (Asturias) - Ache</name><Point><coordinates>-5.80697,43.40094,0</coordinates></Point></Placemark><Placemark><name>F030 BBS ES C/ Antonio Machado 28 - Lugones (Asturias) - Luis1964</name><Point><coordinates>-5.80663,43.40356,0</coordinates></Point></Placemark><Placemark><name>F030 BBS ES SI-2 PK-0.4 Lugones A (Asturias) - Forocoches</name><Point><coordinates>-5.80641,43.40003,0</coordinates></Point></Placemark><Placemark><name>F030 BBS ES C/ Antonio Machado 34 - Lugones (Asturias) - Forocoches</name><Point><coordinates>-5.80588,43.40472,0</coordinates></Point></Placemark><Placemark><name>F030 BBS ES C/ Santa Isabel 18 - Lugones (Asturias) - Ache</name><Point><coordinates>-5.80353,43.40098,0</coordinates></Point></Placemark><Placemark><name>F030 BBS ES AS-383 PK-3.7 - Lugones A/D (Asturias) - Ache</name><Point><coordinates>-5.80266,43.4077,0</coordinates></Point></Placemark><Placemark><name>F030 BBS ES SI-2 PK-0.7 - Lugones D (Asturias) - Forocoches</name><Point><coordinates>-5.80166,43.39998,0</coordinates></Point></Placemark><Placemark><name>F030 BBS ES Av. del Padre Isla - León A/D (León) - joluhe</name><Point><coordinates>-5.5825,42.61047,0</coordinates></Point></Placemark><Placemark><name>F030 BBS ES Av. San Juan de Sahagún 17 - Leon (León) - joluhe</name><Point><coordinates>-5.56684,42.60656,0</coordinates></Point></Placemark><Placemark><name>F030 BBS ES Joaquín Gonzalez Vecín - León (León) - Forocoches</name><Point><coordinates>-5.56366,42.61256,0</coordinates></Point></Placemark><Placemark><name>F030 BBS ES Av. Real 33 - León (León) - tarranchin</name><Point><coordinates>-5.55861,42.59603,0</coordinates></Point></Placemark><Placemark><name>F030 BBS ES Av. Aranzana - Arroyo de la Encomienda (Valladolid) - elchyky</name><Point><coordinates>-4.79092,41.62004,0</coordinates></Point></Placemark><Placemark><name>F030 BBS ES Av. de la Aranzana - Arroyo de la Encomienda (Valladolid) - PacoPapa</name><Point><coordinates>-4.78198,41.62289,0</coordinates></Point></Placemark><Placemark><name>F030 BBS ES Calle de las Eras 5A - Valladolid (Valladolid) - Ache</name><Point><coordinates>-4.73936,41.66036,0</coordinates></Point></Placemark><Placemark><name>F030 BBS ES Calle Rondilla Sta. Teresa 22 - Valladolid (Valladolid) - FerScrich</name><Point><coordinates>-4.7255,41.65899,0</coordinates></Point></Placemark><Placemark><name>F030 BBS ES Av. Santander 27 - Valladolid A/D (Valladolid) - caceres222</name><Point><coordinates>-4.71119,41.66588,0</coordinates></Point></Placemark><Placemark><name>F030 BBS ES Calle Sta. María de la Cabeza 3 - Valladolid (Valladolid) - Ache</name><Point><coordinates>-4.70255,41.6437,0</coordinates></Point></Placemark><Placemark><name>F030 BBS ES Calle Jardines 42 - Palencia (Palencia) - caceres222</name><Point><coordinates>-4.51766,42.00112,0</coordinates></Point></Placemark><Placemark><name>F030 BBS ES Av. Costa del Sol 25-23 - Almuñécar (Granada) - Ache</name><Point><coordinates>-3.69485,36.73742,0</coordinates></Point></Placemark><Placemark><name>F030 BBS ES Paseo Reina Sofía 11 - Almuñécar (Granada) - wyxchari</name><Point><coordinates>-3.678,36.7301,0</coordinates></Point></Placemark><Placemark><name>F030 BBS ES Ctra. Farhana 54 - Melilla (Melilla) - Ache</name><Point><coordinates>-2.95887,35.29348,0</coordinates></Point></Placemark><Placemark><name>F030 BBS ES C/ Ibáñez Marín -  Melilla (Melilla) - Ache</name><Point><coordinates>-2.94965,35.29348,0</coordinates></Point></Placemark><Placemark><name>F030 BBS ES C/ Infantería 14 - Melilla (Melilla) - wyxchari</name><Point><coordinates>-2.94497,35.29466,0</coordinates></Point></Placemark><Placemark><name>F030 BBS ES N-344a PK-3.5 - La Cañada A@ (Almería) - caceres222</name><Point><coordinates>-2.41539,36.83999,0</coordinates></Point></Placemark><Placemark><name>F030 BBS ES N-344a PK-3.8 - La Cañada D @ (Almería) - Ache</name><Point><coordinates>-2.41284,36.84093,0</coordinates></Point></Placemark><Placemark><name>F030 BBS ES N-344a PK-4.6 - Almería A @ (Almería) - Ache</name><Point><coordinates>-2.40307,36.84044,0</coordinates></Point></Placemark><Placemark><name>F030 BBS ES N-344a PK-4.7 - LaCañada D @ (Almería) - Ache</name><Point><coordinates>-2.40189,36.84058,0</coordinates></Point></Placemark><Placemark><name>F030 BBS ES N-344a PK-8.8 - El Alquián A @ (Almería) - Ache</name><Point><coordinates>-2.36094,36.85229,0</coordinates></Point></Placemark><Placemark><name>F030 BBS ES N-344a PK-9.7 - El Alquián A @ (Almería) - Ache</name><Point><coordinates>-2.35186,36.85204,0</coordinates></Point></Placemark><Placemark><name>F030 BBS ES N-344a PK-9.9 - El Alquián D (Almería) - caceres222</name><Point><coordinates>-2.35019,36.85213,0</coordinates></Point></Placemark><Placemark><name>F030 BBS ES C. Vallefranco 33 - Boadilla del Monte (Madrid) - wyxchari</name><Point><coordinates>-3.90364,40.43871,0</coordinates></Point></Placemark><Placemark><name>F030 BBS ES C/ Manuel de Falla 101 - Boadilla del Monte (Madrid) - wyxchari</name><Point><coordinates>-3.88864,40.40067,0</coordinates></Point></Placemark><Placemark><name>F030 BBS ES Playa de Formentor 12 - Boadilla del Monte (Madrid) - wyxchari</name><Point><coordinates>-3.88552,40.44549,0</coordinates></Point></Placemark><Placemark><name>F030 BBS ES Calle Campomanes 10 - Pozuelo de Alarcón (Madrid) - anchonyo</name><Point><coordinates>-3.8176,40.4359,0</coordinates></Point></Placemark><Placemark><name>F030 BBS ES Av. de la Ilusión 13 - Alcobendas (Madrid) - wyxchari</name><Point><coordinates>-3.66215,40.55408,0</coordinates></Point></Placemark><Placemark><name>F030 BBS ES Av. de España 52 - Alcobendas (Madrid) - Forocoches</name><Point><coordinates>-3.63556,40.54744,0</coordinates></Point></Placemark><Placemark><name>F030 BBS ES Blvr. de Salvador Allende 27 - Alcobendas (Madrid) - Forocoches</name><Point><coordinates>-3.63026,40.53899,0</coordinates></Point></Placemark><Placemark><name>F030 BBS ES Paseo de Europa - San Sebastián de los Reyes (Madrid) - wyxchari</name><Point><coordinates>-3.6165,40.5543,0</coordinates></Point></Placemark><Placemark><name>F030 BBS ES Av. Juan Carlos I 6 - Alcalá de Henares (Madrid) - wyxchari</name><Point><coordinates>-3.39199,40.48404,0</coordinates></Point></Placemark><Placemark><name>F030 BBS ES Calle Demetrio Ducar - Alcalá de Henares (Madrid) - wyxchari</name><Point><coordinates>-3.37429,40.48036,0</coordinates></Point></Placemark><Placemark><name>F030 BBS ES Av Miguel de Unamuno - Alcalá de Henares (Madrid) - wyxchari</name><Point><coordinates>-3.37165,40.49649,0</coordinates></Point></Placemark><Placemark><name>F030 BBS ES Vía Complutense 9 - Alcalá de Henares (Madrid) - wyxchari</name><Point><coordinates>-3.37142,40.48381,0</coordinates></Point></Placemark><Placemark><name>F030 BBS ES Paseo de los Curas 18 - Alcalá de Henares A/D (Madrid) - wyxchari</name><Point><coordinates>-3.37063,40.47783,0</coordinates></Point></Placemark><Placemark><name>F030 BBS ES Calle Ronda Fiscal 5 - Alcalá de Henares A/D (Madrid) - wyxchari</name><Point><coordinates>-3.36855,40.47315,0</coordinates></Point></Placemark><Placemark><name>F030 BBS ES Av. Gustavo Adolfo Bécquer - Alcalá de Henares (Madrid) - wyxchari</name><Point><coordinates>-3.36258,40.50903,0</coordinates></Point></Placemark><Placemark><name>F030 BBS ES Av. Zugatzarte 57 - Getxo (Vizcaya) - novato01</name><Point><coordinates>-3.0112,43.33351,0</coordinates></Point></Placemark><Placemark><name>F030 BBS ES Av. Los Chopos - Guecho (Vizcaya) - wyxchari</name><Point><coordinates>-2.99979,43.34669,0</coordinates></Point></Placemark><Placemark><name>F030 BBS ES Av. Simón Otxandategi 98 - Berango (Vizcaya) - Ache</name><Point><coordinates>-2.99696,43.36108,0</coordinates></Point></Placemark><Placemark><name>F030 BBS ES Aldapabarrena Kalea 22 - Leioa (Vizcaya) - novato01</name><Point><coordinates>-2.99063,43.32619,0</coordinates></Point></Placemark><Placemark><name>F030 BBS ES Av. Iparragirre 72 - Leioa (Vizcaya) - Forocoches</name><Point><coordinates>-2.98617,43.32492,0</coordinates></Point></Placemark><Placemark><name>F030 BBS ES Akilino Arriola Kalea 41-Sopela (Vizcaya) - novato01</name><Point><coordinates>-2.98603,43.37918,0</coordinates></Point></Placemark><Placemark><name>F030 BBS ES Av. Iparragirre 2 -  Leioa (Vizcaya) - Forocoches</name><Point><coordinates>-2.98226,43.32343,0</coordinates></Point></Placemark><Placemark><name>F030 BBS ES Kaltzaganeta Kalea - Llodio (Álava) - Poteo_Roke</name><Point><coordinates>-2.98077,43.12512,0</coordinates></Point></Placemark><Placemark><name>F030 BBS ES Olabide Kalea 21 - Sopela (Vizcaya) - novato01</name><Point><coordinates>-2.97869,43.37918,0</coordinates></Point></Placemark><Placemark><name>F030 BBS ES Sabino Arana Kalea 15- Sopela (Vizcaya) - novato01</name><Point><coordinates>-2.97741,43.38136,0</coordinates></Point></Placemark><Placemark><name>F030 BBS ES Olabide Kalea 17 - Sopela (Vizcaya) - novato01</name><Point><coordinates>-2.97504,43.37913,0</coordinates></Point></Placemark><Placemark><name>F030 BBS ES Virgen del Carmen Kalea 20 -  Llodio (Álava) - Forocoches</name><Point><coordinates>-2.95938,43.14476,0</coordinates></Point></Placemark><Placemark><name>F030 BBS ES Carmelo Bernaola Kalea - Bilbao (Vizcaya) - Forocoches</name><Point><coordinates>-2.95624,43.26938,0</coordinates></Point></Placemark><Placemark><name>F030 BBS ES Vitoria Kalea 22 - Llodio A/D (Álava) - Poteo_Roke</name><Point><coordinates>-2.94069,43.143,0</coordinates></Point></Placemark><Placemark><name>F030 BBS ES Mungia Bidea. 10 - Plentzia (Vizcaya) - wyxchari</name><Point><coordinates>-2.94028,43.40478,0</coordinates></Point></Placemark><Placemark><name>F030 BBS ES Alameda de Recalde 27 - Bilbao (Vizcaya) - Forocoches</name><Point><coordinates>-2.93438,43.26449,0</coordinates></Point></Placemark><Placemark><name>F030 BBS ES Salbeko Zubia - Bilbao (Vizcaya) - Forocoches</name><Point><coordinates>-2.93296,43.26792,0</coordinates></Point></Placemark><Placemark><name>F030 BBS ES Calle Tribiñu 28 - Górliz (Vizcaya) - wyxchari</name><Point><coordinates>-2.93195,43.41188,0</coordinates></Point></Placemark><Placemark><name>F030 BBS ES Salbatierrabide 43 - Vitoria (Álava) - wyxchari</name><Point><coordinates>-2.68101,42.83775,0</coordinates></Point></Placemark><Placemark><name>F030 BBS ES Calle de Iturritxu 5 - Vitoria (Álava) - Forocoches</name><Point><coordinates>-2.66762,42.83481,0</coordinates></Point></Placemark><Placemark><name>F030 BBS ES Calle de Iturritxu 9 - Vitoria (Álava) - Forocoches</name><Point><coordinates>-2.66364,42.83437,0</coordinates></Point></Placemark><Placemark><name>F030 BBS ES Nafarroa Hiribidea 210 - Mondragón (Guipúzcoa) - Forocoches</name><Point><coordinates>-2.48729,43.06418,0</coordinates></Point></Placemark><Placemark><name>F030 BBS ES C/ Torrekua - Eibar (Guipúzcoa) - Forocoches</name><Point><coordinates>-2.48683,43.18074,0</coordinates></Point></Placemark><Placemark><name>F030 BBS ES Otaola Hiribidea 22 - Eibar (Guipúzcoa) - Forocoches</name><Point><coordinates>-2.48538,43.1806,0</coordinates></Point></Placemark><Placemark><name>F030 BBS ES Nafarroa Hiribidea - Arrasate (Guipúzcoa) - Forocoches</name><Point><coordinates>-2.47833,43.06393,0</coordinates></Point></Placemark><Placemark><name>F030 BBS ES Gipuzkoa Etorb. 25 - Mondragón (Guipúzcoa) - Forocoches</name><Point><coordinates>-2.47776,43.06754,0</coordinates></Point></Placemark><Placemark><name>F030 BBS ES Av. Club Deportivo 90 - Logroño (La Rioja) - Forocoches</name><Point><coordinates>-2.46333,42.45839,0</coordinates></Point></Placemark><Placemark><name>F030 BBS ES C/ Clavijo 14 - Logroño (La Rioja) - wyxchari</name><Point><coordinates>-2.45793,42.45286,0</coordinates></Point></Placemark><Placemark><name>F030 BBS ES Barrena Kalea 9 - Eibar (Guipúzcoa) - Forocoches</name><Point><coordinates>-2.45585,43.18985,0</coordinates></Point></Placemark><Placemark><name>F030 BBS ES Av. de Madrid 169 - Logroño (La Rioja) - wyxchari</name><Point><coordinates>-2.45148,42.44318,0</coordinates></Point></Placemark><Placemark><name>F030 BBS ES C/ Piquete 2 - Logroño (La Rioja) - Forocoches</name><Point><coordinates>-2.43744,42.4575,0</coordinates></Point></Placemark><Placemark><name>F030 BBS ES C/Madre de Dios 10 - Logroño (La Rioja) - Forocoches</name><Point><coordinates>-2.42127,42.46507,0</coordinates></Point></Placemark><Placemark><name>F030 BBS ES Calle Doctor Begiristain 117  - San Sebastián (Guipúzcoa) - caceres222</name><Point><coordinates>-1.97352,43.29164,0</coordinates></Point></Placemark><Placemark><name>F030 BBS ES Travesía Columna Sagardía 1B - Calahorra (La Rioja) - wyxchari</name><Point><coordinates>-1.96835,42.31103,0</coordinates></Point></Placemark><Placemark><name>F030 BBS ES C. de la Mediavilla 12 - Calahorra (La Rioja) - wyxchari</name><Point><coordinates>-1.96311,42.30085,0</coordinates></Point></Placemark><Placemark><name>F030 BBS ES Av. Estación 5 - Calahorra (La Rioja) - wyxchari</name><Point><coordinates>-1.9605,42.30599,0</coordinates></Point></Placemark><Placemark><name>F030 BBS ES Beraun Kalea 5 - Errenteria (Guipúzcoa) - beraun</name><Point><coordinates>-1.91004,43.3095,0</coordinates></Point></Placemark><Placemark><name>F030 BBS ES Labreder Kalea 4 - Hondarribia (Guipúzcoa) - caceres222</name><Point><coordinates>-1.80103,43.3676,0</coordinates></Point></Placemark><Placemark><name>F030 BBS ES Bº Mendelu Kalea - Hondarribia @ (Guipúzcoa) - caceres222</name><Point><coordinates>-1.80099,43.34774,0</coordinates></Point></Placemark><Placemark><name>F030 BBS ES Baserritar Etorbidea 41 - Hondarribia (Guipúzcoa) - caceres222</name><Point><coordinates>-1.79972,43.37119,0</coordinates></Point></Placemark><Placemark><name>F030 BBS ES Baserritar Etorbidea 74A - Hondarribia (Guipúzcoa) - caceres222</name><Point><coordinates>-1.79922,43.37293,0</coordinates></Point></Placemark><Placemark><name>F030 BBS ES Ramon Iribarren Pasealekua Ibilbidea 7 - Hondarribia (Guipúzcoa) - caceres222</name><Point><coordinates>-1.79806,43.37812,0</coordinates></Point></Placemark><Placemark><name>F030 BBS ES Calle kosta 39 - Hondarribia (Guipúzcoa) - caceres222</name><Point><coordinates>-1.79803,43.35406,0</coordinates></Point></Placemark><Placemark><name>F030 BBS ES Kosta Kalea 9 - Hondarribia (Guipúzcoa) - caceres222</name><Point><coordinates>-1.79721,43.35743,0</coordinates></Point></Placemark><Placemark><name>F030 BBS ES Paseo Ramón Iribarren - Hondarribia (Guipúzcoa) - caceres222</name><Point><coordinates>-1.79592,43.38372,0</coordinates></Point></Placemark><Placemark><name>F030 BBS ES Av. de San Jorge Etorbidea 2 - Pamplona A/D (Navarra) - Ache</name><Point><coordinates>-1.66129,42.82334,0</coordinates></Point></Placemark><Placemark><name>F030 BBS ES Calle Mayor 5 - Pilar de la Horadada (Alicante) - Ache</name><Point><coordinates>-0.79397,37.86593,0</coordinates></Point></Placemark><Placemark><name>F030 BBS ES Calle Mayor 73 - Pilar de la Horadada (Alicante) - Ache</name><Point><coordinates>-0.7888,37.86348,0</coordinates></Point></Placemark><Placemark><name>F030 BBS ES Calle Mayor 147 - Pilar de la Horadada (Alicante) - Ache</name><Point><coordinates>-0.78431,37.86076,0</coordinates></Point></Placemark><Placemark><name>F030 BBS ES Camino de San José - Almansa A/D (Albacete) - wyxchari</name><Point><coordinates>-1.11057,38.86883,0</coordinates></Point></Placemark><Placemark><name>F030 BBS ES Av. Baleares 44 - Torrevieja A/D (Alicante) - Forocoches</name><Point><coordinates>-0.66546,37.98942,0</coordinates></Point></Placemark><Placemark><name>F030 BBS ES Av. Alfredo Nobel 85 - Torrevieja A/D (Alicante) - Forocoches</name><Point><coordinates>-0.6564,37.98831,0</coordinates></Point></Placemark><Placemark><name>F030 BBS ES A-136 PK-13.6 - Escarrilla D (Huesca) - Ache</name><Point><coordinates>-0.31526,42.73649,0</coordinates></Point></Placemark><Placemark><name>F030 BBS ES Av. Papa Juan Pablo II - Benidorm (Alicante) - wyxchari</name><Point><coordinates>-0.15931,38.53965,0</coordinates></Point></Placemark><Placemark><name>F030 BBS ES Av. del Alcalde D. Vicente Pérez Devesa 902 - Benidorm (Alicante) - wyxchari</name><Point><coordinates>-0.15049,38.54039,0</coordinates></Point></Placemark><Placemark><name>F030 BBS ES Av. Beniardá 55 - Benidorm (Alicante) - wyxchari</name><Point><coordinates>-0.13339,38.5466,0</coordinates></Point></Placemark><Placemark><name>F030 BBS ES Av. de Alfonso Puchades 17 - Benidorm (Alicante) - Forocoches</name><Point><coordinates>-0.1289,38.5436,0</coordinates></Point></Placemark><Placemark><name>F030 BBS ES Av.de la Comunidad Valenciana 122 - Benidorm (Alicante) - Forocoches</name><Point><coordinates>-0.11794,38.5456,0</coordinates></Point></Placemark><Placemark><name>F030 BBS ES Av. Doctor Severo Ochoa - Benidorm (Alicante) - Forocoches</name><Point><coordinates>-0.0968,38.55081,0</coordinates></Point></Placemark><Placemark><name>F030 BBS ES Miguel Hernández 31 - Denia (Alicante) - wyxchari</name><Point><coordinates>0.10242,38.84322,0</coordinates></Point></Placemark><Placemark><name>F030 BBS ES Av. de Tàrrega 18 - Guissona A/D (Lérida) - wyxchari</name><Point><coordinates>1.28364,41.78175,0</coordinates></Point></Placemark><Placemark><name>F030 BBS ES Carrer de Corona 25 - Ibiza (Baleares) - Forocoches</name><Point><coordinates>1.41888,38.91522,0</coordinates></Point></Placemark><Placemark><name>F030 BBS ES Carrer de Pascual Ribot 48 - Palma de Mallorca (Baleares) - Forocoches</name><Point><coordinates>2.63416,39.58099,0</coordinates></Point></Placemark><Placemark><name>F030 BBS ES Carrer de Pompeu Fabra - Palma de Mallorca (Baleares) - Forocoches</name><Point><coordinates>2.65753,39.58879,0</coordinates></Point></Placemark><Placemark><name>F030 BBS ES Carrer de Aragón 366 - Palma de Mallorca (Baleares) - Forocoches</name><Point><coordinates>2.68713,39.59507,0</coordinates></Point></Placemark><Placemark><name>F030 BBS ES Ma-6011 PK-1.4 - Palma (Baleares) - wyxchari</name><Point><coordinates>2.75896,39.51476,0</coordinates></Point></Placemark><Placemark><name>F030 BBS ES Av. de Rocacrespa 62 - Villanueva y Geltrú (Barcelona) - Forocoches</name><Point><coordinates>1.69776,41.22434,0</coordinates></Point></Placemark><Placemark><name>F030 BBS ES C246a PK-45.7 - Villanueva y Geltrú A/D (Barcelona) - wyxchari</name><Point><coordinates>1.71448,41.21844,0</coordinates></Point></Placemark><Placemark><name>F030 BBS ES Passeig de Ribes Roges 12 - Villanueva y Geltrú (Barcelona) - Forocoches</name><Point><coordinates>1.72298,41.21382,0</coordinates></Point></Placemark><Placemark><name>F030 BBS ES Av. Constitución 380 -  Castelldefels (Barcelona) - Forocoches</name><Point><coordinates>1.95226,41.26696,0</coordinates></Point></Placemark><Placemark><name>F030 BBS ES Passeig Marítim de Castelldefels 352 - Castelldefels (Barcelona) - Forocoches</name><Point><coordinates>1.95241,41.26516,0</coordinates></Point></Placemark><Placemark><name>F030 BBS ES C-245 PK-3.1 - Castelldefels (Barcelona) - Forocoches</name><Point><coordinates>1.98621,41.28548,0</coordinates></Point></Placemark><Placemark><name>F030 BBS ES Passeig Marítim 63 - Castelldefels (Barcelona) - Forocoches</name><Point><coordinates>1.99022,41.26525,0</coordinates></Point></Placemark><Placemark><name>F030 BBS ES Av. Miguel de Cervantes Saavedra 9 - Viladecans (Barcelona) - Forocoches</name><Point><coordinates>1.99907,41.31453,0</coordinates></Point></Placemark><Placemark><name>F030 BBS ES Av. de Can Batllori 28 - Viladecans (Barcelona) - wyxchari</name><Point><coordinates>2.00801,41.31313,0</coordinates></Point></Placemark><Placemark><name>F030 BBS ES C-245 PK-6.6 - Viladecans A/D (Barcelona) - Forocoches</name><Point><coordinates>2.01433,41.30924,0</coordinates></Point></Placemark><Placemark><name>F030 BBS ES Carrer de Marià Sanjuan Cuchí 37 - Viladecans (Barcelona) - wyxchari</name><Point><coordinates>2.0165,41.32457,0</coordinates></Point></Placemark><Placemark><name>F030 BBS ES C-245 PK-8 - Viladecans A/D (Barcelona) - Ache</name><Point><coordinates>2.02488,41.31927,0</coordinates></Point></Placemark><Placemark><name>F030 BBS ES Av. del Gral. Alvarez de Castro 21 - L'Hospitalet de Llobregat (Barcelona) - Forocoches</name><Point><coordinates>2.09162,41.36275,0</coordinates></Point></Placemark><Placemark><name>F030 BBS ES Pg. de la Bonanova 100 - Barcelona (Barcelona) - Ache</name><Point><coordinates>2.12273,41.4007,0</coordinates></Point></Placemark><Placemark><name>F030 BBS ES C/ d'Angli 38 - Barcelona (Barcelona) - Forocoches</name><Point><coordinates>2.12518,41.40093,0</coordinates></Point></Placemark><Placemark><name>F030 BBS ES Pg. de la Bonanova 67 - Barcelona (Barcelona) - Ache</name><Point><coordinates>2.12677,41.40279,0</coordinates></Point></Placemark><Placemark><name>F030 BBS ES C/ de Numància 163 -  Barcelona (Barcelona) - Ache</name><Point><coordinates>2.13337,41.38872,0</coordinates></Point></Placemark><Placemark><name>F030 BBS ES C/ d'Entença 155 - Barcelona (Barcelona) - Forocoches</name><Point><coordinates>2.14583,41.38324,0</coordinates></Point></Placemark><Placemark><name>F030 BBS ES C/ de Balmes 294 - Barcelona (Barcelona) - Forocoches</name><Point><coordinates>2.1463,41.40203,0</coordinates></Point></Placemark><Placemark><name>F030 BBS ES Travessera de Gràcia 49 - Barcelona (Barcelona) - wyxchari</name><Point><coordinates>2.14911,41.39582,0</coordinates></Point></Placemark><Placemark><name>F030 BBS ES Carrer de Balmes 203 - Barcelona (Barcelona) - Ache</name><Point><coordinates>2.15173,41.39778,0</coordinates></Point></Placemark><Placemark><name>F030 BBS ES C/ de Muntaner 151 - Barcelona (Barcelona) - Ache</name><Point><coordinates>2.15379,41.39088,0</coordinates></Point></Placemark><Placemark><name>F030 BBS ES C/ Rocafort 61 - Barcelona (Barcelona) - Ache</name><Point><coordinates>2.15512,41.37794,0</coordinates></Point></Placemark><Placemark><name>F030 BBS ES C/ de Mallorca 177 - Barcelona (Barcelona) - Forocoches</name><Point><coordinates>2.15641,41.38922,0</coordinates></Point></Placemark><Placemark><name>F030 BBS ES C/ de Sardenya 463 - Barcelona (Barcelona) - Ache</name><Point><coordinates>2.16597,41.40899,0</coordinates></Point></Placemark><Placemark><name>F030 BBS ES C/ de Pau Claris 137 -  Barcelona (Barcelona) - Forocoches</name><Point><coordinates>2.16611,41.39349,0</coordinates></Point></Placemark><Placemark><name>F030 BBS ES C/ del Consejo de Ciento 385 - Barcelona (Barcelona) - Forocoches</name><Point><coordinates>2.1695,41.39396,0</coordinates></Point></Placemark><Placemark><name>F030 BBS ES Av. Supermolina1 - La Molina (Gerona) - wyxchari</name><Point><coordinates>1.9361,42.33687,0</coordinates></Point></Placemark><Placemark><name>F030 BBS ES C/ De Mallorca 377 - Barcelona @ (Barcelona) - Forocoches</name><Point><coordinates>2.17219,41.40105,0</coordinates></Point></Placemark><Placemark><name>F030 BBS ES C/ de la Indústria 250 - Barcelona (Barcelona) - wyxchari</name><Point><coordinates>2.17864,41.41283,0</coordinates></Point></Placemark><Placemark><name>F030 BBS ES C/ de Sant Antoni Maria Claret 263 - Barcelona (Barcelona) - Ache</name><Point><coordinates>2.18235,41.41718,0</coordinates></Point></Placemark><Placemark><name>F030 BBS ES C/ de Mallorca 599 - Barcelona (Barcelona) - Ache</name><Point><coordinates>2.18603,41.41146,0</coordinates></Point></Placemark><Placemark><name>F030 BBS ES Ronda Pinetons - Mollet del Vallès (Barcelona) - Forocoches</name><Point><coordinates>2.20256,41.54512,0</coordinates></Point></Placemark><Placemark><name>F030 BBS ES Av. de Rivoli 8 - Mollet del Vallès (Barcelona) - Forocoches</name><Point><coordinates>2.21228,41.54769,0</coordinates></Point></Placemark><Placemark><name>F030 BBS ES Carrer de l'Era d'en Sellés - Vic (Barcelona) - Forocoches</name><Point><coordinates>2.24967,41.93539,0</coordinates></Point></Placemark><Placemark><name>F030 BBS ES BV-5008 PK-0.8 - Tiana (Barcelona) - sirlea</name><Point><coordinates>2.26673,41.46888,0</coordinates></Point></Placemark><Placemark><name>F030 BBS ES N-II PK-631.5 - Montgat D @ (Barcelona) - caceres222</name><Point><coordinates>2.28916,41.46995,0</coordinates></Point></Placemark><Placemark><name>F030 BBS ES Camí del Pedró - Sant Vicenç de Montalt (Barcelona) - wyxchari</name><Point><coordinates>2.51323,41.56769,0</coordinates></Point></Placemark><Placemark><name>F030 BBS ES Carrer Riera de Torrentbó. 6 - Sant Vicenç de Montalt A/D (Barcelona) - wyxchari</name><Point><coordinates>2.52483,41.57557,0</coordinates></Point></Placemark><Placemark><name>F030 BBS ES C/ Costa Brava 272 - Vidreres (Gerona) - Forocoches</name><Point><coordinates>2.78656,41.78991,0</coordinates></Point></Placemark><Placemark><name>F030 BBS ES Ctra. Riudaura 85 - Olot (Gerona) - Ache</name><Point><coordinates>2.47032,42.1837,0</coordinates></Point></Placemark><Placemark><name>F030 BBS ES Carrer Madrid 48 -  Olot (Gerona) - jenito</name><Point><coordinates>2.47603,42.17081,0</coordinates></Point></Placemark><Placemark><name>F030 BBS ES Av. de Santa Coloma. s/n. - Girona (Gerona) - Ache</name><Point><coordinates>2.47841,42.17172,0</coordinates></Point></Placemark><Placemark><name>F030 BBS ES Av. Sant Jordi 190 - Olot (Gerona) - Ache</name><Point><coordinates>2.48563,42.17169,0</coordinates></Point></Placemark><Placemark><name>F030 BBS ES Av Sant Jordi 102 - Olot (Gerona) - wyxchari</name><Point><coordinates>2.49435,42.17856,0</coordinates></Point></Placemark><Placemark><name>F030 BBS ES Av Sant Jordi 23 - Olot (Gerona) - wyxchari</name><Point><coordinates>2.49682,42.18125,0</coordinates></Point></Placemark><Placemark><name>F030 BBS ES Carretera de la Canya 47b - Olot (Gerona) - Ache</name><Point><coordinates>2.4995,42.19061,0</coordinates></Point></Placemark><Placemark><name>F030 BBS ES Carretera de les Tries 75 - Olot (Gerona) - Ache</name><Point><coordinates>2.50456,42.18994,0</coordinates></Point></Placemark><Placemark><name>F030 BBS ES Urbanització Santo Tomàs 15 - Menorca (Baleares) - Forocoches</name><Point><coordinates>4.03499,39.91719,0</coordinates></Point></Placemark><Placemark><name>F030 BBS ES Me-20 PK-6.5 - Es Migjorn A/D (Baleares) - wyxchari</name><Point><coordinates>4.04746,39.94589,0</coordinates></Point></Placemark><Placemark><name>F030 BBS ES Me-12 PK-4.9 - San Clemente A/D (Baleares) - wyxchari</name><Point><coordinates>4.20594,39.87238,0</coordinates></Point></Placemark><Placemark><name>F030 BBS ES C. de ses Quatre Boques - Maó (Baleares) - Forocoches</name><Point><coordinates>4.24965,39.88679,0</coordinates></Point></Placemark><Placemark><name>F030 BBS ES Carrer de la Marinada 155 - d'Empuriabrava (Gerona) - Ache</name><Point><coordinates>3.11537,42.24363,0</coordinates></Point></Placemark><Placemark><name>F030 BBS ES Passeig de Calunya 53 - Torroella de Montgrí (Gerona) - pzcamara</name><Point><coordinates>3.1278,42.0409,0</coordinates></Point></Placemark><Placemark><name>F030 BBS ES Passeig de Vicenç Bou 47 - Torroella de Montgrí (Gerona) - wyxchari</name><Point><coordinates>3.1292,42.03849,0</coordinates></Point></Placemark><Placemark><name>F030 BBS ES C-66 PK-1.5 - Palafrugell D @ (Gerona) - Ache</name><Point><coordinates>3.13044,41.93847,0</coordinates></Point></Placemark><Placemark><name>F030 BBS ES C-66 PK-1.3 - Palafrugell A @ (Gerona) - Ache</name><Point><coordinates>3.13237,41.93706,0</coordinates></Point></Placemark><Placemark><name>F030 BBS ES AV. de Catalunya 2 - Palafrugell (Gerona) - Forocoches</name><Point><coordinates>3.14687,41.90587,0</coordinates></Point></Placemark><Placemark><name>F030 BBS ES AV. de Catalunya 21 - Palafrugell (Gerona) - Forocoches</name><Point><coordinates>3.14726,41.91132,0</coordinates></Point></Placemark><Placemark><name>F030 BBS ES C/ Torres Jonama 27 - Palafrugell (Gerona) - Forocoches</name><Point><coordinates>3.1486,41.90823,0</coordinates></Point></Placemark><Placemark><name>F030 BBS ES Av. Grècia 19 - Torroella de Montgrí (Gerona) - wyxchari</name><Point><coordinates>3.19567,42.05053,0</coordinates></Point></Placemark></Folder></kml>
