<?xml version="1.0" encoding="ISO-8859-1"?>
<kml xmlns="http://earth.google.com/kml/2.0"><Folder><Placemark><name>F020 BBS ES C/ Graciano 8 - Merida (Badajoz) - Ache</name><Point><coordinates>-6.34545,38.91432,0</coordinates></Point></Placemark><Placemark><name>F020 BBS ES Av. Juan de Austria - Salamanca (Salamanca) - Ache</name><Point><coordinates>-5.66308,40.94938,0</coordinates></Point></Placemark><Placemark><name>F020 BBS ES Ctra. Getares - Algeciras A/D (Cádiz) - Ache</name><Point><coordinates>-5.44132,36.11561,0</coordinates></Point></Placemark><Placemark><name>F020 BBS ES Isabel de Farnesio 2 - Boadilla del Monte (Madrid) - wyxchari</name><Point><coordinates>-3.88617,40.41034,0</coordinates></Point></Placemark><Placemark><name>F020 BBS ES P.º de la Chopera 118 - Alcobendas (Madrid) - Forocoches</name><Point><coordinates>-3.64855,40.54475,0</coordinates></Point></Placemark><Placemark><name>F020 BBS ES Calle Sabino Arana 10 - Berango (Vizcaya) - Forocoches</name><Point><coordinates>-2.99984,43.3657,0</coordinates></Point></Placemark><Placemark><name>F020 BBS ES Doctor Don Luis Bilbao Libano Kalea 28 - Leioa (Vizcaya) - Forocoches</name><Point><coordinates>-2.9859,43.32275,0</coordinates></Point></Placemark><Placemark><name>F020 BBS ES Goierri Errepidea 2 -  Barrika (Vizcaya) - novato01</name><Point><coordinates>-2.97175,43.39524,0</coordinates></Point></Placemark><Placemark><name>F020 BBS ES C/ La Legión 44 - Melilla (Melilla) - Fororcoches</name><Point><coordinates>-2.94299,35.27596,0</coordinates></Point></Placemark><Placemark><name>F020 BBS ES Armintza Errepidea 4 - Górliz (Vizcaya) - novato01</name><Point><coordinates>-2.93202,43.41498,0</coordinates></Point></Placemark><Placemark><name>F020 BBS ES Plaza Sabino Arana 3 Arteaga-San Martín (Vizcaya) - beraun</name><Point><coordinates>-2.86584,43.28436,0</coordinates></Point></Placemark><Placemark><name>F020 BBS ES Pasealekua Ibilbidea 30 - Arrasate (Guipúzcoa) - wyxchari</name><Point><coordinates>-2.49535,43.06261,0</coordinates></Point></Placemark><Placemark><name>Radares BBS www.laradiobbs.net Actualizacion: miércoles, 7 de mayo de 2025 a las 07:08 - Semana: 19</name><Point><coordinates>0,0,0</coordinates></Point></Placemark><Placemark><name>F020 BBS ES Av. la Vila Joiosa 18 - Benidorm (Alicante) - Forocoches</name><Point><coordinates>-0.15842,38.53427,0</coordinates></Point></Placemark><Placemark><name>F020 BBS ES Av. de la Armada Española 10 - Benidorm (Alicante) - Forocoches</name><Point><coordinates>-0.14183,38.5372,0</coordinates></Point></Placemark><Placemark><name>F020 BBS ES Av. d' Alacant 51 - Benitachel (Alicante) - wyxchari</name><Point><coordinates>0.13988,38.73062,0</coordinates></Point></Placemark><Placemark><name>F020 BBS ES Carrer Major 18 - Sant Vicenç de Montal (Barcelona) - Forocoches</name><Point><coordinates>2.50771,41.57951,0</coordinates></Point></Placemark><Placemark><name>F020 BBS ES Carrer de Sant Antoni 16 - Sant Vicenç de Montalt (Barcelona) - mmorell</name><Point><coordinates>2.50893,41.57856,0</coordinates></Point></Placemark></Folder></kml>
